timeTick, roll, pitch, yaw, stateX, stateY, stateZ, stateVX, stateVY, stateVZ, otX0, otY0, otZ0, otRoll0, otPitch0, otYaw0, motor1, motor2, motor3, motor4, voltage, roll rate, pitch rate, yaw rate
644596, -0.035075388848781586, -1.5640932321548462, -0.07470986247062683, 0, 0, 0, 0, 0, 0, -0.015584065578877926, 0.019327174872159958, 0.05634695291519165, 1.206366883036893, 0.4917683495677636, 3.36896928678099, 0, 0, 0, 0, 0, 0, 0, 0
644606, -0.034879397600889206, -1.5624568462371826, -0.07367446273565292, 23.747005462646484, 0.8713680505752563, 1.611802339553833, 3.0969722270965576, 0.1027868315577507, 0.13082291185855865, -0.01558189932256937, 0.019326655194163322, 0.05634220317006111, 1.2003399571287028, 0.49499366504900877, 3.3693583407221928, 9362.0, 34078.0, 35388.0, 9362.0, 7.933885097503662, -0.009833866730332375, -0.09350884705781937, 0.06434964388608932
644616, -0.03590270131826401, -1.5625269412994385, -0.07362442463636398, 23.77798843383789, 0.8723962306976318, 1.6131110191345215, 3.099653482437134, 0.1028435081243515, 0.13091802597045898, -0.015574702993035316, 0.019320964813232422, 0.05632168799638748, 1.2093465416049856, 0.5076047643796642, 3.367999912988867, 9362.0, 34078.0, 35388.0, 9362.0, 7.933885097503662, 0.05318206548690796, -0.3660455644130707, -0.16838769614696503
644626, -0.034941960126161575, -1.5616769790649414, -0.07459429651498795, 23.808998107910156, 0.8734249472618103, 1.6144208908081055, 3.1023330688476562, 0.10289988666772842, 0.131056547164917, -0.015581228770315647, 0.01932630129158497, 0.05631711333990097, 1.211269246827669, 0.49458015798776955, 3.3690753972155507, 9362.0, 34078.0, 35388.0, 9362.0, 7.933885097503662, -0.20421941578388214, 0.20014524459838867, 0.17012661695480347
644636, -0.035765841603279114, -1.5624992847442627, -0.07391147315502167, 23.84003448486328, 0.8744542598724365, 1.6157314777374268, 3.1050093173980713, 0.10295791178941727, 0.1310541331768036, -0.015582744963467121, 0.019314970821142197, 0.056332800537347794, 1.2104256638661897, 0.49597410439830014, 3.371368533463752, 9362.0, 34078.0, 35388.0, 9362.0, 7.933885097503662, 0.07012307643890381, 0.2667900025844574, -0.05516257509589195
644646, -0.03509560972452164, -1.5624326467514038, -0.07371342182159424, 23.871097564697266, 0.8754841089248657, 1.6170421838760376, 3.10768461227417, 0.10301432013511658, 0.13108935952186584, -0.015580457635223866, 0.01933750882744789, 0.05633125454187393, 1.199769275023876, 0.4974541789298996, 3.3673554253346443, 9362.0, 34078.0, 35388.0, 9362.0, 7.933885097503662, -0.013270503841340542, 0.061577875167131424, 0.24481035768985748
644656, -0.03418506681919098, -1.5627479553222656, -0.07352004945278168, 23.90218734741211, 0.8765145540237427, 1.6183528900146484, 3.1103594303131104, 0.10307210683822632, 0.13105285167694092, -0.015587049536406994, 0.019324297085404396, 0.056322433054447174, 1.2079503769598636, 0.49184552765046874, 3.364286079927453, 9362.0, 34078.0, 35388.0, 9362.0, 7.933885097503662, 0.07151108235120773, -0.13183800876140594, -0.0766439363360405
644666, -0.034270770847797394, -1.5644786357879639, -0.07298379391431808, 23.933303833007812, 0.8775455355644226, 1.6196637153625488, 3.113037586212158, 0.1031288281083107, 0.13112077116966248, -0.015574987046420574, 0.01932118460536003, 0.056331709027290344, 1.2082286282185695, 0.5019469754630279, 3.377904309386821, 9362.0, 34078.0, 35388.0, 9362.0, 7.933885097503662, 0.06795654445886612, 0.09945207089185715, -0.19424393773078918
644676, -0.03339619189500809, -1.5647327899932861, -0.0741078183054924, 23.964447021484375, 0.8785771131515503, 1.6209752559661865, 3.115715265274048, 0.10318399220705032, 0.13118258118629456, -0.015575496479868889, 0.019326359033584595, 0.056335046887397766, 1.2060341814844322, 0.4887768187259667, 3.3757361870362765, 9362.0, 34078.0, 35388.0, 9362.0, 7.933885097503662, 0.1355029195547104, -0.019962981343269348, 0.03561648353934288
644686, -0.033158719539642334, -1.5667368173599243, -0.07372929155826569, 23.995616912841797, 0.879609227180481, 1.6222871541976929, 3.1183953285217285, 0.10323924571275711, 0.1312023401260376, -0.015571686439216137, 0.019326655194163322, 0.05634789168834686, 1.2107108235890123, 0.49999565389614986, 3.367403078669237, 9362.0, 34078.0, 35388.0, 9362.0, 7.933885097503662, 0.11558695882558823, 0.42652252316474915, 0.09518260508775711
644696, -0.03248012438416481, -1.569580316543579, -0.07266910374164581, 24.026813507080078, 0.8806418776512146, 1.6235992908477783, 3.1210758686065674, 0.10329300165176392, 0.13121969997882843, -0.015574201941490173, 0.01931915432214737, 0.056345924735069275, 1.2107378671651454, 0.49880780009669934, 3.3694166601734, 9362.0, 34078.0, 35388.0, 9362.0, 7.933885097503662, 0.22120805084705353, -0.15830130875110626, -0.06918627768754959
644706, -0.03390837833285332, -1.569676160812378, -0.07156963646411896, 24.05803680419922, 0.8816750645637512, 1.6249115467071533, 3.1237592697143555, 0.10334639251232147, 0.1312408298254013, -0.015556655824184418, 0.019303694367408752, 0.056511975824832916, 1.1381395105629806, 0.5617127800778121, 3.3692302273653967, 9362.0, 34078.0, 35388.0, 9362.0, 7.933885097503662, -0.15158645808696747, -0.042885441333055496, -0.20289820432662964
644716, -0.033578936010599136, -1.5715421438217163, -0.07259386777877808, 24.08928871154785, 0.8827087879180908, 1.6262240409851074, 3.126448392868042, 0.10339868813753128, 0.13126222789287567, -0.015581055544316769, 0.019321581348776817, 0.056336719542741776, 1.214787754854875, 0.49595551684316774, 3.3734250800637433, 9362.0, 34078.0, 35388.0, 9362.0, 7.933885097503662, -0.019208967685699463, 0.2168285995721817, 0.015270407311618328
644726, -0.03376069292426109, -1.5726416110992432, -0.07201286405324936, 24.120567321777344, 0.8837430477142334, 1.627536416053772, 3.1291353702545166, 0.10345332324504852, 0.13122105598449707, -0.015576626174151897, 0.019331561401486397, 0.05634384602308273, 1.2175990656553386, 0.4903443504043423, 3.3655059312560334, 9362.0, 34078.0, 35388.0, 9362.0, 7.933885097503662, -0.0764068141579628, 0.08936868607997894, -0.0325501412153244
644736, -0.03557583689689636, -1.5732381343841553, -0.07071299850940704, 24.151872634887695, 0.884777843952179, 1.6288474798202515, 3.1318204402923584, 0.10350733995437622, 0.13100315630435944, -0.015572077594697475, 0.019324123859405518, 0.05633360892534256, 1.2074535274026363, 0.5034157429159904, 3.3687191399307377, 9362.0, 34078.0, 35388.0, 9362.0, 7.933885097503662, -0.10352417081594467, -0.12402275204658508, 0.21420659124851227
644746, -0.03595276549458504, -1.5740283727645874, -0.06924179941415787, 24.183204650878906, 0.8858131766319275, 1.630157232284546, 3.1345126628875732, 0.10356181859970093, 0.13094867765903473, -0.015590900555253029, 0.01932370662689209, 0.056359611451625824, 1.215843587196495, 0.49143895089895295, 3.3684963675966584, 9362.0, 34078.0, 35388.0, 9362.0, 7.933885097503662, -0.054744135588407516, 0.40578562021255493, 0.11242470145225525
644756, -0.036778438836336136, -1.5745023488998413, -0.06892821937799454, 24.214563369750977, 0.8868491053581238, 1.631467342376709, 3.1372106075286865, 0.10361956804990768, 0.13106413185596466, -0.01557626761496067, 0.01931886002421379, 0.05635049194097519, 1.2084848975732947, 0.4957217897717783, 3.367459091961707, 9362.0, 34078.0, 35388.0, 9362.0, 7.933885097503662, 0.06341048330068588, 0.3246515393257141, 0.1866917610168457
644766, -0.0354861281812191, -1.5774192810058594, -0.06862937659025192, 24.245948791503906, 0.887885570526123, 1.632778525352478, 3.139909267425537, 0.10367798060178757, 0.13117912411689758, -0.015587891452014446, 0.019322095438838005, 0.056340016424655914, 1.2078699079187443, 0.4939318215874664, 3.367525708580245, 9362.0, 34078.0, 35388.0, 9362.0, 7.933885097503662, -0.22894231975078583, -0.030911192297935486, 0.1662733256816864
644776, -0.036121465265750885, -1.578460931777954, -0.0679377093911171, 24.277360916137695, 0.8889226317405701, 1.6340903043746948, 3.142606019973755, 0.1037377417087555, 0.13118664920330048, -0.015583265572786331, 0.019319964572787285, 0.056318849325180054, 1.2102487375477242, 0.5000526513156274, 3.373226882703041, 9362.0, 34078.0, 35388.0, 9362.0, 7.933885097503662, -0.017059417441487312, 0.06865748763084412, 0.019068140536546707
644786, -0.036436546593904495, -1.5777709484100342, -0.06845654547214508, 24.308799743652344, 0.8899602890014648, 1.635401964187622, 3.1453065872192383, 0.10379529744386673, 0.13114754855632782, -0.01557212881743908, 0.019322790205478668, 0.05630974844098091, 1.2128658555950556, 0.5007744457535068, 3.3786112866381215, 9362.0, 34078.0, 35388.0, 9362.0, 7.933885097503662, 0.11006445437669754, 0.07534141093492508, -0.053603459149599075
644796, -0.036281224340200424, -1.5790832042694092, -0.06969304382801056, 24.340267181396484, 0.8909985423088074, 1.6367136240005493, 3.148010492324829, 0.10385394841432571, 0.13117696344852448, -0.015580846928060055, 0.01931687258183956, 0.05633114278316498, 1.2021736309816071, 0.5038259014125686, 3.3663438579211156, 9362.0, 34078.0, 35388.0, 9362.0, 7.933885097503662, -0.1967812478542328, -0.061676062643527985, 0.13383948802947998
644806, -0.036647241562604904, -1.580256462097168, -0.06935954838991165, 24.371761322021484, 0.8920373916625977, 1.638025164604187, 3.1507115364074707, 0.10391304641962051, 0.13113990426063538, -0.015576362609863281, 0.019328648224473, 0.05635765194892883, 1.2175653861326867, 0.5035064626584074, 3.3707440413359917, 9362.0, 34078.0, 35388.0, 9362.0, 7.933885097503662, 0.05637705698609352, -0.0013173016486689448, -0.18015557527542114
644816, -0.036853447556495667, -1.5782983303070068, -0.07232528179883957, 24.403282165527344, 0.8930768370628357, 1.6393367052078247, 3.153416633605957, 0.103971928358078, 0.13116241991519928, -0.015573660843074322, 0.019327186048030853, 0.05634312331676483, 1.2141960615955916, 0.5048177738991626, 3.371410362232804, 9362.0, 34078.0, 35388.0, 9362.0, 7.933885097503662, -0.09229627996683121, 0.042201511561870575, -0.08747125416994095
644826, -0.03774571791291237, -1.5794882774353027, -0.0731251910328865, 24.434829711914062, 0.8941168785095215, 1.6406487226486206, 3.1561248302459717, 0.10403133183717728, 0.1312435269355774, -0.01558285765349865, 0.01932378299534321, 0.05633347108960152, 1.2081125482696797, 0.4942722588990307, 3.371851399188524, 9362.0, 34078.0, 35388.0, 9362.0, 7.933885097503662, -0.10041473060846329, 0.14461684226989746, -0.03954791650176048
644836, -0.038117483258247375, -1.5800787210464478, -0.07417730987071991, 24.46640396118164, 0.895157516002655, 1.641960859298706, 3.1588263511657715, 0.10409095883369446, 0.13117609918117523, -0.015564771369099617, 0.01932581141591072, 0.05632606893777847, 1.2108762998406493, 0.4975563429579779, 3.3632140162160216, 9362.0, 34078.0, 35388.0, 9362.0, 7.933885097503662, 0.002617423888295889, 0.17829515039920807, -0.15638113021850586
644846, -0.03841917961835861, -1.584479808807373, -0.07448457926511765, 24.498004913330078, 0.8961987495422363, 1.6432726383209229, 3.161531925201416, 0.1041521281003952, 0.13118410110473633, -0.015578581020236015, 0.01932552270591259, 0.05633322894573212, 1.2048341044621342, 0.49834359159777364, 3.37088651327152, 9362.0, 34078.0, 35388.0, 9362.0, 7.933885097503662, 0.023411540314555168, 0.14092998206615448, -0.18321476876735687
644856, -0.038072504103183746, -1.5842665433883667, -0.07520599663257599, 24.529634475708008, 0.8972405791282654, 1.6445846557617188, 3.164238929748535, 0.10421393066644669, 0.13121508061885834, -0.015558551996946335, 0.019326502457261086, 0.05635162070393562, 1.2056134455224496, 0.5042102907579817, 3.3707189977376153, 9362.0, 34078.0, 35388.0, 9362.0, 7.933885097503662, -0.042547035962343216, 0.05070231109857559, -0.0760909914970398
644866, -0.03812454640865326, -1.5851800441741943, -0.07627040147781372, 24.561290740966797, 0.8982830047607422, 1.6458961963653564, 3.1669492721557617, 0.10427609086036682, 0.13109931349754333, -0.015566057525575161, 0.019319521263241768, 0.05633404478430748, 1.2029888832640812, 0.5011474972168912, 3.366912879604458, 9362.0, 34078.0, 35388.0, 9362.0, 7.933885097503662, 0.04427390173077583, -0.23379836976528168, -0.1318090260028839
644876, -0.03870583325624466, -1.5856413841247559, -0.07683529704809189, 24.592973709106445, 0.8993260860443115, 1.6472073793411255, 3.169664144515991, 0.10433772206306458, 0.13113486766815186, -0.015589161776006222, 0.01931757852435112, 0.0563434436917305, 1.20136018872601, 0.49733057881815057, 3.3685135319632176, 9362.0, 34078.0, 35388.0, 9362.0, 7.933885097503662, 0.06909490376710892, 0.30822810530662537, -0.046161968261003494
644886, -0.03865993395447731, -1.5865215063095093, -0.07715374231338501, 24.624683380126953, 0.9003697633743286, 1.6485199928283691, 3.1723861694335938, 0.10439955443143845, 0.13139133155345917, -0.015571481548249722, 0.019318237900733948, 0.05635211244225502, 1.2095349858779005, 0.5014665360016295, 3.369176648144758, 9362.0, 34078.0, 35388.0, 9362.0, 7.933885097503662, 0.007068551145493984, 0.06523871421813965, -0.21797923743724823
644896, -0.03874008730053902, -1.587662935256958, -0.07819098234176636, 24.656421661376953, 0.9014140963554382, 1.6498348712921143, 3.17510724067688, 0.10446232557296753, 0.1315959393978119, -0.015582853928208351, 0.019323593005537987, 0.056352853775024414, 1.2041412651095535, 0.4982289407955989, 3.372314111884755, 9362.0, 34078.0, 35388.0, 9362.0, 7.933885097503662, 0.06886681169271469, 0.1907476782798767, -0.03432602807879448
644906, -0.03930145874619484, -1.5896570682525635, -0.08071950078010559, 24.688186645507812, 0.9024590253829956, 1.6511515378952026, 3.177828073501587, 0.10452490299940109, 0.1317366361618042, -0.015573674812912941, 0.01931227371096611, 0.05633695796132088, 1.2019696981674735, 0.5041871886494107, 3.370489432351836, 9362.0, 34078.0, 35388.0, 9362.0, 7.933885097503662, -0.05743277445435524, 0.21648256480693817, -0.05597541108727455
644916, -0.039121340960264206, -1.5896440744400024, -0.08101805299520493, 24.71997833251953, 0.9035046100616455, 1.6524693965911865, 3.1805496215820312, 0.10458750277757645, 0.13182570040225983, -0.015568580478429794, 0.019319649785757065, 0.05634579062461853, 1.2115057104830282, 0.5027022885967938, 3.367492094230179, 9362.0, 34078.0, 35388.0, 9362.0, 7.933885097503662, -0.013822165317833424, -0.02633347176015377, -0.19448022544384003
644926, -0.03978022560477257, -1.5904179811477661, -0.08191780000925064, 24.75179672241211, 0.9045507907867432, 1.6537874937057495, 3.183271646499634, 0.10465095192193985, 0.13180437684059143, -0.015570791438221931, 0.019315702840685844, 0.05634462460875511, 1.2161592807757304, 0.4940954814754548, 3.3715533665531017, 9362.0, 34078.0, 35388.0, 9362.0, 7.933885097503662, 0.08579955250024796, -0.4445304274559021, -0.538882315158844
644936, -0.03964606299996376, -1.5878634452819824, -0.08352256566286087, 24.78364372253418, 0.9055976271629333, 1.6551048755645752, 3.185990333557129, 0.10471397638320923, 0.13167403638362885, -0.01557394303381443, 0.01932193711400032, 0.05634065717458725, 1.2045162795476634, 0.5020498615659506, 3.373739905879707, 9362.0, 34078.0, 35388.0, 9362.0, 7.933885097503662, -0.1309709995985031, -0.023723682388663292, 0.08087944984436035
644946, -0.03847060725092888, -1.587951898574829, -0.08235340565443039, 24.81551742553711, 0.9066450595855713, 1.6564217805862427, 3.1887149810791016, 0.10477814823389053, 0.1316976696252823, -0.015586691908538342, 0.01931189000606537, 0.056333329528570175, 1.212064502133365, 0.49578200595766475, 3.3758435179332174, 9362.0, 34078.0, 35388.0, 9362.0, 7.933885097503662, 0.012081064283847809, 0.055802904069423676, 0.12801797688007355
644956, -0.03828370198607445, -1.5899938344955444, -0.08104939758777618, 24.8474178314209, 0.9076931476593018, 1.6577389240264893, 3.1914350986480713, 0.1048421710729599, 0.13173523545265198, -0.015583631582558155, 0.019311806187033653, 0.05637744069099426, 1.2121419442183339, 0.4939374916102679, 3.37338659470964, 9362.0, 34078.0, 35388.0, 9362.0, 7.933885097503662, -0.10352236032485962, -0.05784979090094566, -0.0169613566249609
644966, -0.038240961730480194, -1.5892419815063477, -0.08121944963932037, 24.879344940185547, 0.9087418913841248, 1.659056544303894, 3.1941566467285156, 0.10490424931049347, 0.13178490102291107, -0.015582422725856304, 0.019315745681524277, 0.05633191019296646, 1.2098069094259267, 0.4992014619466545, 3.3685327662537303, 9362.0, 34078.0, 35388.0, 9362.0, 7.933885097503662, -0.10193704068660736, -0.26990988850593567, -0.11093120276927948
644976, -0.038307227194309235, -1.587264060974121, -0.08213719725608826, 24.911300659179688, 0.9097912311553955, 1.6603752374649048, 3.196884870529175, 0.10496608912944794, 0.13195981085300446, -0.015582054853439331, 0.019322406500577927, 0.056351397186517715, 1.2058812435007165, 0.49157503477832165, 3.372780158234211, 9362.0, 34078.0, 35388.0, 9362.0, 7.933885097503662, 0.1505785882472992, -0.05611409246921539, -0.2832214832305908
644986, -0.0385582335293293, -1.5857003927230835, -0.08290030062198639, 24.943283081054688, 0.9108412265777588, 1.6616945266723633, 3.1996045112609863, 0.10502763837575912, 0.13190187513828278, -0.015575345605611801, 0.01932426169514656, 0.05634362995624542, 1.201093777884491, 0.49205951918736446, 3.368250010817215, 9362.0, 34078.0, 35388.0, 9362.0, 7.933885097503662, -0.33655333518981934, 0.1487164944410324, 0.23103146255016327
644996, -0.03933810815215111, -1.5850616693496704, -0.08243916928768158, 24.975292205810547, 0.9118918180465698, 1.6630138158798218, 3.202324151992798, 0.10508935153484344, 0.13196085393428802, -0.01558544859290123, 0.01933441497385502, 0.056303367018699646, 1.2093863780407559, 0.4985502960148267, 3.365813498080121, 9362.0, 34078.0, 35388.0, 9362.0, 7.933885097503662, 0.05581309273838997, 0.053688954561948776, -0.062047477811574936
645006, -0.038737330585718155, -1.586525797843933, -0.08238889276981354, 25.0073299407959, 0.9129430055618286, 1.664333701133728, 3.2050416469573975, 0.10515152662992477, 0.1320069134235382, -0.015570891089737415, 0.019326625391840935, 0.056338436901569366, 1.214706550094766, 0.512434356302208, 3.3734548448178763, 9362.0, 34078.0, 35388.0, 9362.0, 7.933885097503662, 0.06095925718545914, 0.3562461733818054, 0.2784419357776642
645016, -0.03846282511949539, -1.5892059803009033, -0.07872923463582993, 25.03939437866211, 0.9139948487281799, 1.6656543016433716, 3.207759380340576, 0.10521507263183594, 0.13212154805660248, -0.01558045856654644, 0.019325511530041695, 0.056325554847717285, 1.2060828525184597, 0.502720582835309, 3.368009240252449, 9362.0, 34078.0, 35388.0, 9362.0, 7.933885097503662, -0.06023534759879112, 0.2311752587556839, 0.05504528805613518
645026, -0.03741013631224632, -1.5914583206176758, -0.08089615404605865, 25.07148551940918, 0.915047287940979, 1.6669758558273315, 3.2104787826538086, 0.10527773201465607, 0.13219155371189117, -0.01558332983404398, 0.019327465444803238, 0.05634523928165436, 1.2094965975648393, 0.49805722475352354, 3.372074765300624, 9362.0, 34078.0, 35388.0, 9362.0, 7.933885097503662, -0.11470350623130798, 0.03106524795293808, -0.22745974361896515
645036, -0.03800501674413681, -1.591562271118164, -0.08195488154888153, 25.10360336303711, 0.9161003828048706, 1.6682980060577393, 3.2132015228271484, 0.10533978790044785, 0.13222858309745789, -0.01558205857872963, 0.01931668259203434, 0.05635390430688858, 1.2124212318882353, 0.49272834627444695, 3.370249369852805, 9362.0, 34078.0, 35388.0, 9362.0, 7.933885097503662, 0.10038632899522781, -0.04956243559718132, 0.1221436932682991
645046, -0.0375833697617054, -1.5924906730651855, -0.08133013546466827, 25.13574981689453, 0.91715407371521, 1.6696200370788574, 3.215926170349121, 0.10539994388818741, 0.13218945264816284, -0.015568656846880913, 0.019326819106936455, 0.05632364749908447, 1.213757230290907, 0.5051120128622131, 3.3744321940007977, 9362.0, 34078.0, 35388.0, 9362.0, 7.933885097503662, -0.09589943289756775, 0.051573749631643295, -0.29640626907348633
645056, -0.03876728191971779, -1.594139814376831, -0.08176371455192566, 25.167922973632812, 0.9182083606719971, 1.6709413528442383, 3.218648672103882, 0.10546109825372696, 0.13207438588142395, -0.015570903196930885, 0.019317613914608955, 0.05634473264217377, 1.2134552204936273, 0.5051718364164515, 3.365369085840837, 9362.0, 34078.0, 35388.0, 9362.0, 7.933885097503662, 0.19043414294719696, 0.17208708822727203, 0.032594483345746994
645066, -0.03859008848667145, -1.5950164794921875, -0.0813046246767044, 25.200122833251953, 0.9192633032798767, 1.67226243019104, 3.2213780879974365, 0.10552163422107697, 0.1321491301059723, -0.015565287321805954, 0.0193233173340559, 0.0563368946313858, 1.2211453172639137, 0.49878237399468617, 3.373099382154588, 9362.0, 34078.0, 35388.0, 9362.0, 7.933885097503662, -0.022808363661170006, -0.025236399844288826, -0.2005622833967209
645076, -0.038395337760448456, -1.5952866077423096, -0.08114328980445862, 25.232349395751953, 0.9203188419342041, 1.6735841035842896, 3.224109649658203, 0.10558417439460754, 0.1321854144334793, -0.015572264790534973, 0.019336318597197533, 0.05635637789964676, 1.2004451610707092, 0.4966236148730161, 3.3750115899860207, 9362.0, 34078.0, 35388.0, 9362.0, 7.933885097503662, -0.08374232798814774, 0.08543816953897476, -0.001435877289623022
645086, -0.039098065346479416, -1.596787452697754, -0.08143100887537003, 25.264604568481445, 0.9213749766349792, 1.6749067306518555, 3.2268459796905518, 0.105646513402462, 0.132339745759964, -0.01558078732341528, 0.019323017448186874, 0.05632989853620529, 1.206680912899373, 0.506452742629051, 3.3705580424132777, 9362.0, 34078.0, 35388.0, 9362.0, 7.933885097503662, 0.08277491480112076, 0.16018225252628326, -0.20613659918308258
645096, -0.038282427936792374, -1.5979278087615967, -0.08279524743556976, 25.296886444091797, 0.9224317669868469, 1.676230788230896, 3.229581117630005, 0.10570846498012543, 0.13246499001979828, -0.015538617968559265, 0.019308961927890778, 0.05651259422302246, 1.1410878460415363, 0.5647174588961263, 3.375033128317435, 9362.0, 34078.0, 35388.0, 9362.0, 7.933885097503662, 0.020254550501704216, -0.04565111920237541, -0.04320825636386871
645106, -0.03939620032906532, -1.6000597476959229, -0.08011824637651443, 25.329195022583008, 0.9234891533851624, 1.6775548458099365, 3.2323126792907715, 0.10577140748500824, 0.13235312700271606, -0.015565800480544567, 0.01932256668806076, 0.05633418262004852, 1.2099764343946107, 0.5005258772358445, 3.372910430281939, 9362.0, 34078.0, 35388.0, 9362.0, 7.933885097503662, -0.10131316632032394, 0.3665963411331177, 0.03883883357048035
645116, -0.03998687118291855, -1.6008120775222778, -0.08099821209907532, 25.36153221130371, 0.9245471954345703, 1.6788781881332397, 3.235048294067383, 0.10583313554525375, 0.13230790197849274, -0.015569891780614853, 0.019326863810420036, 0.056331075727939606, 1.2119722635378847, 0.5029087573342679, 3.3706878653210626, 9362.0, 34078.0, 35388.0, 9362.0, 7.933885097503662, -0.19465970993041992, -0.2467420995235443, 0.08998847752809525
645126, -0.03943907842040062, -1.601768970489502, -0.08064191788434982, 25.393896102905273, 0.925605833530426, 1.6802011728286743, 3.237788200378418, 0.1058967188000679, 0.13228575885295868, -0.015568597242236137, 0.019328750669956207, 0.05636191740632057, 1.2053204362416148, 0.5028945311358655, 3.375126485441876, 9362.0, 34078.0, 35388.0, 9362.0, 7.933885097503662, 0.06994350254535675, 0.4519006013870239, 0.023939091712236404
645136, -0.03890983760356903, -1.6031100749969482, -0.08108711242675781, 25.426288604736328, 0.9266651272773743, 1.681524395942688, 3.2405319213867188, 0.1059614047408104, 0.13236679136753082, -0.015565728768706322, 0.019330868497490883, 0.056357212364673615, 1.2168901037685478, 0.5084930498359483, 3.368360072886251, 9362.0, 34078.0, 35388.0, 9362.0, 7.933885097503662, 0.11100887507200241, -0.09337645024061203, -0.4540599584579468
645146, -0.03820014372467995, -1.6049468517303467, -0.08142030984163284, 25.458707809448242, 0.927725076675415, 1.6828479766845703, 3.2432749271392822, 0.10602506995201111, 0.13234010338783264, -0.015577503480017185, 0.01932569406926632, 0.05633525550365448, 1.2055905430506144, 0.49760822348852685, 3.3764262540594, 9362.0, 34078.0, 35388.0, 9362.0, 7.933885097503662, -0.016967415809631348, 0.1325709968805313, 0.2788379192352295
645156, -0.03897571563720703, -1.6061813831329346, -0.08174959570169449, 25.491153717041016, 0.9287856221199036, 1.6841706037521362, 3.246016502380371, 0.10608772188425064, 0.13219620287418365, -0.015571415424346924, 0.019331365823745728, 0.05634051188826561, 1.2151024651673352, 0.502620971004859, 3.371197738248904, 9362.0, 34078.0, 35388.0, 9362.0, 7.933885097503662, -0.018449241295456886, 0.013555082492530346, -0.012993168085813522
645166, -0.03899460658431053, -1.6072343587875366, -0.08218325674533844, 25.52362823486328, 0.9298468232154846, 1.6854922771453857, 3.248763084411621, 0.10614918917417526, 0.13213291764259338, -0.015562898479402065, 0.019329458475112915, 0.0563482828438282, 1.2206677868393006, 0.5023535165000226, 3.378397273662171, 9362.0, 34078.0, 35388.0, 9362.0, 7.933885097503662, 0.09305799752473831, -0.3651285767555237, -0.28920063376426697
645176, -0.03939269110560417, -1.605378270149231, -0.08401014655828476, 25.556129455566406, 0.9309086203575134, 1.6868128776550293, 3.251509666442871, 0.10621190071105957, 0.13199132680892944, -0.015553644858300686, 0.019335459917783737, 0.05635179951786995, 1.2094534206751586, 0.5051117891074455, 3.36946136595232, 9362.0, 34078.0, 35388.0, 9362.0, 7.933885097503662, 0.1444648653268814, -0.23409049212932587, 0.02653423883020878
645186, -0.03951931744813919, -1.6051044464111328, -0.08400464802980423, 25.58865737915039, 0.9319710731506348, 1.6881322860717773, 3.2542593479156494, 0.10627459734678268, 0.13189202547073364, -0.015530714765191078, 0.019323386251926422, 0.05648275464773178, 1.1447588655492156, 0.5676057560932293, 3.375376126260599, 9362.0, 34078.0, 35388.0, 9362.0, 7.933885097503662, -0.09039457142353058, -0.1454693228006363, 0.0013885594671592116
645196, -0.03890205919742584, -1.6043096780776978, -0.08452309668064117, 25.621213912963867, 0.9330341219902039, 1.6894522905349731, 3.2570149898529053, 0.10633818060159683, 0.13210153579711914, -0.015571268275380135, 0.019341282546520233, 0.056341901421546936, 1.2104970884178878, 0.5009515654205074, 3.3744573838440086, 9362.0, 34078.0, 35388.0, 9362.0, 7.933885097503662, 0.002607953967526555, 0.1383826732635498, -0.15702667832374573
645206, -0.03930802643299103, -1.6045666933059692, -0.08616907149553299, 25.653797149658203, 0.9340978264808655, 1.690774917602539, 3.259773015975952, 0.10640201717615128, 0.13241684436798096, -0.015555992722511292, 0.019331200048327446, 0.05635543540120125, 1.2246339371326314, 0.5004253939400769, 3.37529951863204, 9362.0, 34078.0, 35388.0, 9362.0, 7.933885097503662, 0.24294650554656982, 0.31573498249053955, 0.13784050941467285
645216, -0.03906890004873276, -1.6065614223480225, -0.08696175366640091, 25.68640899658203, 0.9351621866226196, 1.6921000480651855, 3.262525796890259, 0.10646463930606842, 0.1326008439064026, -0.015566027723252773, 0.01933627389371395, 0.05633862689137459, 1.201271668641915, 0.5081250356015801, 3.3740104251050185, 9362.0, 34078.0, 35388.0, 9362.0, 7.933885097503662, 0.056711889803409576, -0.03214528411626816, -0.06950026005506516
645226, -0.03789835795760155, -1.6072431802749634, -0.08784838765859604, 25.71904754638672, 0.9362271428108215, 1.693426251411438, 3.2652745246887207, 0.10652781277894974, 0.13263902068138123, -0.015576609410345554, 0.019331790506839752, 0.056332334876060486, 1.2055868411291404, 0.5054408540958661, 3.3738796396086204, 9362.0, 34078.0, 35388.0, 9362.0, 7.933885097503662, -0.02107970044016838, 0.02699594385921955, -0.18011769652366638
645236, -0.03832696005702019, -1.6087027788162231, -0.08814403414726257, 25.7517147064209, 0.937292754650116, 1.6947520971298218, 3.2680230140686035, 0.10659044235944748, 0.13252419233322144, -0.015568678267300129, 0.019322911277413368, 0.056336384266614914, 1.2081044246720063, 0.5106048736333548, 3.37242985925838, 9362.0, 34078.0, 35388.0, 9362.0, 7.933885097503662, -0.1129063069820404, 0.5853849053382874, 0.4366438686847687
645246, -0.03806207701563835, -1.6129658222198486, -0.08660819381475449, 25.784408569335938, 0.9383589625358582, 1.69607675075531, 3.2707722187042236, 0.10665104538202286, 0.13239964842796326, -0.015575558878481388, 0.019322006031870842, 0.05633818358182907, 1.2110749267570575, 0.49674940302912773, 3.364990848029822, 9362.0, 34078.0, 35388.0, 9362.0, 7.933885097503662, -0.06286359578371048, 0.11464577168226242, 0.15445822477340698
645256, -0.03803383186459541, -1.6135227680206299, -0.08649580180644989, 25.817129135131836, 0.9394257664680481, 1.6974010467529297, 3.273529291152954, 0.10671257227659225, 0.13245046138763428, -0.015571567229926586, 0.019320277497172356, 0.056326355785131454, 1.2157251785781893, 0.49756632955066493, 3.377679354897722, 9362.0, 34078.0, 35388.0, 9362.0, 7.933885097503662, -0.04655103385448456, -0.396837055683136, -0.035229265689849854
645266, -0.038674768060445786, -1.6132029294967651, -0.08519486337900162, 25.849878311157227, 0.9404932260513306, 1.6987260580062866, 3.276294231414795, 0.10677365213632584, 0.13254030048847198, -0.015561687760055065, 0.01932825706899166, 0.05635836347937584, 1.2130527939292164, 0.5074801863278253, 3.368450802912587, 9362.0, 34078.0, 35388.0, 9362.0, 7.933885097503662, 0.06459029763936996, 0.018420808017253876, -0.22421616315841675
645276, -0.03835117816925049, -1.612701416015625, -0.08684329688549042, 25.882654190063477, 0.9415612816810608, 1.7000516653060913, 3.2790586948394775, 0.10683470964431763, 0.1325884908437729, -0.015565091744065285, 0.019326619803905487, 0.05637424811720848, 1.20436749279394, 0.5022025727573407, 3.3762637492946768, 9362.0, 34078.0, 35388.0, 9362.0, 7.933885097503662, -0.07620812952518463, -0.17734099924564362, -0.17041537165641785
645286, -0.03889191895723343, -1.6127092838287354, -0.08948586881160736, 25.91545867919922, 0.9426299333572388, 1.7013778686523438, 3.2818233966827393, 0.10689681023359299, 0.13265666365623474, -0.015563408844172955, 0.01933892071247101, 0.056356050074100494, 1.2099020280431236, 0.4978816336147247, 3.3726144494291006, 9362.0, 34078.0, 35388.0, 9362.0, 7.933885097503662, -0.07512498646974564, 0.05963684245944023, -0.001100175897590816
645296, -0.03977712616324425, -1.6117134094238281, -0.08896040916442871, 25.94828987121582, 0.9436991810798645, 1.7027045488357544, 3.2845866680145264, 0.10695822536945343, 0.13269072771072388, -0.015564211644232273, 0.019333580508828163, 0.05633408576250076, 1.2078016220848087, 0.5036660699413744, 3.373345836820336, 9362.0, 34078.0, 35388.0, 9362.0, 7.933885097503662, 0.019551580771803856, -0.13012033700942993, -0.05246774107217789
645306, -0.039088331162929535, -1.6105732917785645, -0.0895983874797821, 25.981149673461914, 0.9447690844535828, 1.7040321826934814, 3.287353277206421, 0.10702064633369446, 0.13284653425216675, -0.015572640113532543, 0.019323157146573067, 0.056342363357543945, 1.2035604374970332, 0.5118456144826382, 3.3778086288096323, 9362.0, 34078.0, 35388.0, 9362.0, 7.933885097503662, -0.04878555238246918, 0.049282677471637726, 0.09154833108186722
645316, -0.03897503390908241, -1.6089640855789185, -0.0896679162979126, 26.014036178588867, 0.9458395838737488, 1.7053606510162354, 3.2901132106781006, 0.10708445310592651, 0.13283619284629822, -0.015570197254419327, 0.01933947391808033, 0.056338995695114136, 1.2099884532970044, 0.50857771843215, 3.374237807326587, 9362.0, 34078.0, 35388.0, 9362.0, 7.933885097503662, -0.06969360262155533, 0.21051931381225586, -0.05491643399000168
645326, -0.039038270711898804, -1.6112078428268433, -0.08874472230672836, 26.046951293945312, 0.9469107389450073, 1.7066890001296997, 3.2928717136383057, 0.10714709013700485, 0.13283030688762665, -0.015561835840344429, 0.019350320100784302, 0.056338902562856674, 1.2068072530433742, 0.5037806191751883, 3.375473021665406, 9362.0, 34078.0, 35388.0, 9362.0, 7.933885097503662, 0.10605362057685852, 0.3809095323085785, -0.13648247718811035
645336, -0.039042454212903976, -1.612406611442566, -0.09222434461116791, 26.079893112182617, 0.9479825496673584, 1.7080169916152954, 3.2956254482269287, 0.10720953345298767, 0.13276924192905426, -0.015561837702989578, 0.019324349239468575, 0.056333474814891815, 1.2164207289162396, 0.4990259843872593, 3.369924073928768, 9362.0, 34078.0, 35388.0, 9362.0, 7.933885097503662, 0.05748441815376282, 0.017107626423239708, -0.4066932797431946
645346, -0.03955722600221634, -1.6144987344741821, -0.09446123242378235, 26.112863540649414, 0.9490549564361572, 1.709344744682312, 3.2983853816986084, 0.10727198421955109, 0.13278521597385406, -0.015571179799735546, 0.019325735047459602, 0.05634414404630661, 1.2125978645872617, 0.5004143964498269, 3.373378294543979, 9362.0, 34078.0, 35388.0, 9362.0, 7.933885097503662, -0.1462388038635254, 0.07882735878229141, 0.12217537313699722
645356, -0.03914431855082512, -1.6138101816177368, -0.0947800874710083, 26.14586067199707, 0.9501279592514038, 1.7106726169586182, 3.301147699356079, 0.10733432322740555, 0.1327958106994629, -0.015564627014100552, 0.019320407882332802, 0.05632350593805313, 1.2149031708148497, 0.4950124793822397, 3.373417488637659, 9362.0, 34078.0, 35388.0, 9362.0, 7.933885097503662, 0.14263299107551575, 0.005881072487682104, 0.0427296906709671
645366, -0.04023614153265953, -1.6145119667053223, -0.09410770982503891, 26.17888641357422, 0.9512016177177429, 1.7120009660720825, 3.3039145469665527, 0.10739754885435104, 0.13286767899990082, -0.01555750984698534, 0.01932026818394661, 0.05631133168935776, 1.2139233834986392, 0.4967674359564853, 3.3644866037823, 9362.0, 34078.0, 35388.0, 9362.0, 7.933885097503662, -0.07415912300348282, 0.07759018242359161, -0.17979128658771515
645376, -0.038477957248687744, -1.6155369281768799, -0.09434894472360611, 26.211938858032227, 0.9522759318351746, 1.7133300304412842, 3.306680917739868, 0.10746010392904282, 0.13294360041618347, -0.015576175414025784, 0.01932462677359581, 0.056310173124074936, 1.204581219863233, 0.49741994262242883, 3.375173714371271, 9362.0, 34078.0, 35388.0, 9362.0, 7.933885097503662, 0.1442616581916809, 0.25287866592407227, -0.06917525827884674
645386, -0.038604047149419785, -1.618759036064148, -0.09489385783672333, 26.245019912719727, 0.953350841999054, 1.7146594524383545, 3.30944561958313, 0.10752446204423904, 0.1329495906829834, -0.015576275065541267, 0.01931879296898842, 0.05633244663476944, 1.2092973608672575, 0.49141067269204086, 3.369604640386197, 9362.0, 34078.0, 35388.0, 9362.0, 7.933885097503662, 0.04938703402876854, 0.031814172863960266, -0.03443118929862976
645396, -0.037259649485349655, -1.6177517175674438, -0.09476196020841599, 26.278127670288086, 0.9544264078140259, 1.7159886360168457, 3.31221079826355, 0.10758575797080994, 0.13287702202796936, -0.015565979294478893, 0.019328834488987923, 0.056298352777957916, 1.2085386607985185, 0.5000597874788753, 3.374030683601692, 9362.0, 34078.0, 35388.0, 9362.0, 7.933885097503662, 0.09454891830682755, -0.0010831898543983698, 0.05614842101931572
645406, -0.037391554564237595, -1.6178760528564453, -0.09544266760349274, 26.311264038085938, 0.9555025696754456, 1.7173175811767578, 3.314984083175659, 0.10764731466770172, 0.13290388882160187, -0.01556938886642456, 0.019316190853714943, 0.05633329600095749, 1.2078550402628336, 0.4954548776562717, 3.3787971665389565, 9362.0, 34078.0, 35388.0, 9362.0, 7.933885097503662, -0.01948353461921215, -0.02803962491452694, 0.013039435259997845
645416, -0.03786687180399895, -1.618257999420166, -0.09495498985052109, 26.34442710876465, 0.956579327583313, 1.7186466455459595, 3.3177545070648193, 0.10770650953054428, 0.13290977478027344, -0.015571830794215202, 0.019322676584124565, 0.056345414370298386, 1.206886298097607, 0.4885660332639077, 3.3682030218438803, 9362.0, 34078.0, 35388.0, 9362.0, 7.933885097503662, -0.061898745596408844, 0.012430969625711441, 0.06662259250879288
645426, -0.03712001442909241, -1.6181098222732544, -0.09547332674264908, 26.37761878967285, 0.9576566815376282, 1.7199761867523193, 3.320528268814087, 0.1077660322189331, 0.1330057829618454, -0.01557406596839428, 0.01933208666741848, 0.056348852813243866, 1.2001741925044311, 0.504720615610438, 3.3675296557899803, 9362.0, 34078.0, 35388.0, 9362.0, 7.933885097503662, -0.11715985089540482, 0.16302429139614105, 0.05318349972367287
645436, -0.03781052306294441, -1.6188725233078003, -0.09521500021219254, 26.410837173461914, 0.9587346315383911, 1.7213066816329956, 3.3233022689819336, 0.10782632231712341, 0.1330857127904892, -0.015589304268360138, 0.019320573657751083, 0.056337349116802216, 1.2045542803805556, 0.49915590452869196, 3.371527918406935, 9362.0, 34078.0, 35388.0, 9362.0, 7.933885097503662, 0.015492402017116547, -0.09653890877962112, 0.2876761555671692
645446, -0.03755796328186989, -1.6204005479812622, -0.0935891792178154, 26.44408416748047, 0.9598131775856018, 1.722638487815857, 3.3260793685913086, 0.10788542032241821, 0.13328391313552856, -0.015569538809359074, 0.019329942762851715, 0.05636080726981163, 1.2010593557834859, 0.49988166901567865, 3.3654186677392044, 9362.0, 34078.0, 35388.0, 9362.0, 7.933885097503662, 0.05598536133766174, 0.37040314078330994, -0.1817857325077057
645456, -0.03784656152129173, -1.6218663454055786, -0.09538348019123077, 26.477359771728516, 0.9608923196792603, 1.7239718437194824, 3.3288540840148926, 0.10794571042060852, 0.13338163495063782, -0.0155800711363554, 0.019323090091347694, 0.056364674121141434, 1.2036394549041396, 0.49715057045972344, 3.3741235170984467, 9362.0, 34078.0, 35388.0, 9362.0, 7.933885097503662, -0.056764718145132065, -0.019360659644007683, 0.301556795835495
645466, -0.03746742755174637, -1.6203523874282837, -0.09489890933036804, 26.510662078857422, 0.9619720578193665, 1.7253059148788452, 3.3316307067871094, 0.10800545662641525, 0.13342183828353882, -0.015580126084387302, 0.019323216751217842, 0.05632530152797699, 1.2068328340330672, 0.4974559464630204, 3.3728757741833686, 9362.0, 34078.0, 35388.0, 9362.0, 7.933885097503662, 0.08280714601278305, -0.34795013070106506, 0.04783869534730911
645476, -0.037442486733198166, -1.6174209117889404, -0.09708309918642044, 26.54399299621582, 0.9630523920059204, 1.7266404628753662, 3.3344109058380127, 0.10806572437286377, 0.1334833949804306, -0.015581389889121056, 0.019331298768520355, 0.05637003853917122, 1.2062183728758271, 0.4918126846039854, 3.3754552719647277, 9362.0, 34078.0, 35388.0, 9362.0, 7.933885097503662, -0.052947912365198135, -0.20156408846378326, -0.25582337379455566
645486, -0.03747320920228958, -1.617258906364441, -0.09759045392274857, 26.577350616455078, 0.9641333222389221, 1.7279757261276245, 3.3371880054473877, 0.1081252470612526, 0.1335781216621399, -0.015570878982543945, 0.019336894154548645, 0.056340448558330536, 1.2065083691373195, 0.4985596705951423, 3.3646095717639666, 9362.0, 34078.0, 35388.0, 9362.0, 7.933885097503662, 0.15498612821102142, 0.08597095310688019, 0.22575849294662476
645496, -0.037275806069374084, -1.6203680038452148, -0.09566880017518997, 26.610736846923828, 0.9652148485183716, 1.7293121814727783, 3.339961290359497, 0.10818473994731903, 0.13370312750339508, -0.01557190716266632, 0.019326014444231987, 0.05634041130542755, 1.2035817184906112, 0.492563513368367, 3.3706341494406407, 9362.0, 34078.0, 35388.0, 9362.0, 7.933885097503662, 0.10487357527017593, 0.43311238288879395, -0.1858329325914383
645506, -0.03774565830826759, -1.6228344440460205, -0.0977080762386322, 26.644149780273438, 0.9662969708442688, 1.730650782585144, 3.342740058898926, 0.10824447870254517, 0.13401155173778534, -0.015571619383990765, 0.0193259809166193, 0.05633541941642761, 1.2066647904898995, 0.504218800012012, 3.366085809961471, 9362.0, 34078.0, 35388.0, 9362.0, 7.933885097503662, -0.02664642408490181, 0.07748162001371384, -0.02263307198882103
645516, -0.038564253598451614, -1.6232998371124268, -0.09583363682031631, 26.67759132385254, 0.9673796892166138, 1.7319916486740112, 3.34552001953125, 0.10830368846654892, 0.1341707408428192, -0.015584027394652367, 0.01931692659854889, 0.056358225643634796, 1.2094473465669804, 0.49273628182695006, 3.3701769737661307, 9362.0, 34078.0, 35388.0, 9362.0, 7.933885097503662, -0.13489185273647308, -0.16719718277454376, -0.011305667459964752
645526, -0.038538508117198944, -1.6230515241622925, -0.09509385377168655, 26.7110595703125, 0.9684630036354065, 1.7333335876464844, 3.3483004570007324, 0.10836371034383774, 0.13421058654785156, -0.0155789228156209, 0.01931820809841156, 0.05635323375463486, 1.2057049920505383, 0.49351441165819665, 3.373876372847844, 9362.0, 34078.0, 35388.0, 9362.0, 7.933885097503662, -0.12371231615543365, 0.1281539797782898, 0.12185803055763245
645536, -0.039846304804086685, -1.6245355606079102, -0.09394808113574982, 26.744556427001953, 0.9695469737052917, 1.7346758842468262, 3.3510818481445312, 0.10842518508434296, 0.1342514306306839, -0.015550999902188778, 0.01931033469736576, 0.056480780243873596, 1.1394226812091155, 0.5673038320231569, 3.3709559908016677, 9362.0, 34078.0, 35388.0, 9362.0, 7.933885097503662, 0.03145277127623558, 0.2277020961046219, 0.11154726892709732
645546, -0.038970641791820526, -1.6287661790847778, -0.09315001964569092, 26.7780818939209, 0.9706315398216248, 1.736018419265747, 3.3538620471954346, 0.10848663747310638, 0.13425979018211365, -0.01557069830596447, 0.019326219335198402, 0.05636101961135864, 1.208707269982206, 0.498617093597602, 3.3729157396881515, 9362.0, 34078.0, 35388.0, 9362.0, 7.933885097503662, -0.11766770482063293, 0.21053633093833923, -0.11151623725891113
645556, -0.03814131021499634, -1.6289829015731812, -0.0935731753706932, 26.811634063720703, 0.9717167019844055, 1.7373607158660889, 3.356642007827759, 0.1085503101348877, 0.1341918557882309, -0.015578420832753181, 0.019326718524098396, 0.05633821710944176, 1.2094052507269553, 0.49737599530192256, 3.3729212407897897, 9362.0, 34078.0, 35388.0, 9362.0, 7.933885097503662, 0.05177843198180199, 0.3297220766544342, 0.06556875258684158
645566, -0.03843381255865097, -1.6319098472595215, -0.09259995073080063, 26.84521484375, 0.9728025197982788, 1.7387031316757202, 3.3594348430633545, 0.10861257463693619, 0.13429582118988037, -0.015573711134493351, 0.019320489838719368, 0.05637166649103165, 1.2001135797437654, 0.49669176497093304, 3.373655008212569, 9362.0, 34078.0, 35388.0, 9362.0, 7.933885097503662, -0.16735057532787323, 0.1977052390575409, 0.04971316456794739
645576, -0.038450974971055984, -1.6315375566482544, -0.09319769591093063, 26.878822326660156, 0.9738889336585999, 1.740046501159668, 3.362227201461792, 0.10867344588041306, 0.13437975943088531, -0.015548884868621826, 0.01931840367615223, 0.056517988443374634, 1.1347102759006875, 0.5722322456604445, 3.3682503640121357, 9362.0, 34078.0, 35388.0, 9362.0, 7.933885097503662, -0.17040365934371948, -0.09448148310184479, -0.06083689257502556
645586, -0.038635190576314926, -1.6318342685699463, -0.09441766887903214, 26.912458419799805, 0.9749760031700134, 1.7413899898529053, 3.365020513534546, 0.10873469710350037, 0.13432542979717255, -0.015587341971695423, 0.019316114485263824, 0.0563710518181324, 1.2183480218501552, 0.4951734361613944, 3.3670833429110494, 9362.0, 34078.0, 35388.0, 9362.0, 7.933885097503662, -0.050244756042957306, -0.03854912891983986, -0.40173932909965515
645596, -0.03740618750452995, -1.6308156251907349, -0.09485917538404465, 26.946123123168945, 0.9760636687278748, 1.742732286453247, 3.367810010910034, 0.10879584401845932, 0.13414612412452698, -0.015580374747514725, 0.0193170253187418, 0.05636324733495712, 1.2168964004469847, 0.4981519697714134, 3.3743772378198864, 9362.0, 34078.0, 35388.0, 9362.0, 7.933885097503662, -0.11924420297145844, -0.2637667953968048, -0.005615817382931709
645606, -0.03768262639641762, -1.6292030811309814, -0.09550561755895615, 26.979814529418945, 0.9771519303321838, 1.7440733909606934, 3.370603084564209, 0.10885737091302872, 0.13408218324184418, -0.015563753433525562, 0.019328296184539795, 0.05635276064276695, 1.2087081202255312, 0.5059321734894127, 3.3725573906672914, 9362.0, 34078.0, 35388.0, 9362.0, 7.933885097503662, -0.04803634062409401, -0.29547351598739624, -0.2603228688240051
645616, -0.03841618821024895, -1.6298763751983643, -0.09516626596450806, 27.013534545898438, 0.9782407879829407, 1.7454149723052979, 3.3734002113342285, 0.10891686379909515, 0.13423113524913788, -0.015566638670861721, 0.019321318715810776, 0.05633275583386421, 1.210778266979227, 0.4976804185719743, 3.3641931303492707, 9362.0, 34078.0, 35388.0, 9362.0, 7.933885097503662, 0.07997621595859528, 0.005676126107573509, 0.316345751285553
645626, -0.03769972175359726, -1.631471872329712, -0.0945974737405777, 27.047283172607422, 0.9793302416801453, 1.7467589378356934, 3.3762001991271973, 0.10897699743509293, 0.1345640867948532, -0.015572663396596909, 0.019321925938129425, 0.05632781982421875, 1.2070833676060155, 0.48960805413358344, 3.36500790084861, 9362.0, 34078.0, 35388.0, 9362.0, 7.933885097503662, -0.1075514405965805, 0.2786332368850708, 0.1040305495262146
645636, -0.03709631413221359, -1.6312075853347778, -0.09682175517082214, 27.081058502197266, 0.9804202914237976, 1.7481048107147217, 3.378992795944214, 0.10903819650411606, 0.13460507988929749, -0.015568888746201992, 0.019321905449032784, 0.056321028620004654, 1.2155558559138562, 0.5005438289908852, 3.369068916325684, 9362.0, 34078.0, 35388.0, 9362.0, 7.933885097503662, 0.08874581009149551, 0.09045829623937607, -0.4925410747528076
645646, -0.03778192028403282, -1.6307450532913208, -0.09624002873897552, 27.1148624420166, 0.9815109968185425, 1.7494505643844604, 3.3817849159240723, 0.10909801721572876, 0.13454465568065643, -0.015552171505987644, 0.01929865963757038, 0.0565030500292778, 1.1525582449505092, 0.5723821240190716, 3.3766934560564494, 9362.0, 34078.0, 35388.0, 9362.0, 7.933885097503662, 0.011779478751122952, 0.2149774432182312, 0.38751521706581116
645656, -0.0372295081615448, -1.6304317712783813, -0.096148282289505, 27.14869499206543, 0.9826022982597351, 1.7507961988449097, 3.384579658508301, 0.10915688425302505, 0.13458597660064697, -0.015571736730635166, 0.019323844462633133, 0.05634581297636032, 1.2139125730016165, 0.4947308819884313, 3.3771917333505175, 9362.0, 34078.0, 35388.0, 9362.0, 7.933885097503662, -0.11323997378349304, -0.2229728400707245, -0.05353742465376854
645666, -0.038123007863759995, -1.6297845840454102, -0.0966021865606308, 27.182554244995117, 0.9836941957473755, 1.7521425485610962, 3.387375831604004, 0.10921698808670044, 0.1346953958272934, -0.015562890097498894, 0.01932617463171482, 0.05634260177612305, 1.2110615104231461, 0.506945414145946, 3.378533549849397, 9362.0, 34078.0, 35388.0, 9362.0, 7.933885097503662, -0.24763092398643494, 0.24696168303489685, 0.15610039234161377
645676, -0.03946153074502945, -1.6292818784713745, -0.09548481553792953, 27.216442108154297, 0.9847866892814636, 1.7534897327423096, 3.390169143676758, 0.10927606374025345, 0.13473856449127197, -0.015592258423566818, 0.019333504140377045, 0.056371066719293594, 1.205315588941713, 0.49158501646712693, 3.3702754302483777, 9362.0, 34078.0, 35388.0, 9362.0, 7.933885097503662, -0.11200568079948425, 0.07476066052913666, 0.011027897708117962
645686, -0.038908328860998154, -1.6317309141159058, -0.09557054936885834, 27.25035858154297, 0.9858797788619995, 1.7548372745513916, 3.392961025238037, 0.1093367338180542, 0.13476428389549255, -0.015554030425846577, 0.01930828206241131, 0.056515391916036606, 1.1353243611122865, 0.5661968227395846, 3.3689357389577324, 9362.0, 34078.0, 35388.0, 9362.0, 7.933885097503662, -0.1654301881790161, 0.23490621149539948, 0.22945503890514374
645696, -0.04073256254196167, -1.6341438293457031, -0.09506053477525711, 27.2843017578125, 0.9869734644889832, 1.75618577003479, 3.395756244659424, 0.10939977318048477, 0.13492876291275024, -0.015547556802630424, 0.019319947808980942, 0.056511301547288895, 1.1374849024341491, 0.5717480926145413, 3.375908285743382, 9362.0, 34078.0, 35388.0, 9362.0, 7.933885097503662, 0.082457035779953, 0.05343318730592728, 0.02703836001455784
645706, -0.040843747556209564, -1.6352512836456299, -0.09523126482963562, 27.318273544311523, 0.9880677461624146, 1.7575352191925049, 3.398552417755127, 0.10946182906627655, 0.13495184481143951, -0.015573471784591675, 0.019317425787448883, 0.05630521476268768, 1.206532008689755, 0.5004578686347543, 3.374328480905033, 9362.0, 34078.0, 35388.0, 9362.0, 7.933885097503662, -0.2036164551973343, 0.27483564615249634, 0.008792187087237835
645716, -0.04134385660290718, -1.6378402709960938, -0.09365075826644897, 27.35227394104004, 0.9891626834869385, 1.758885145187378, 3.401353597640991, 0.10952699929475784, 0.13502980768680573, -0.01557067222893238, 0.01931864395737648, 0.05636461824178696, 1.219593949675313, 0.4900575115786978, 3.3740704825460535, 9362.0, 34078.0, 35388.0, 9362.0, 7.933885097503662, -0.08606664091348648, 0.3606199026107788, 0.20501160621643066
645726, -0.042115725576877594, -1.6407945156097412, -0.09266979247331619, 27.386301040649414, 0.9902582764625549, 1.7602355480194092, 3.4041545391082764, 0.10959238559007645, 0.13505388796329498, -0.015570858493447304, 0.01932646334171295, 0.056345134973526, 1.208625218861463, 0.5036920174252941, 3.3723155879870177, 9362.0, 34078.0, 35388.0, 9362.0, 7.933885097503662, -0.20168088376522064, 0.08318609744310379, -0.2930268943309784
645736, -0.04124927148222923, -1.644182801246643, -0.09186550229787827, 27.42035675048828, 0.9913545250892639, 1.76158607006073, 3.4069597721099854, 0.10965867340564728, 0.13505904376506805, -0.015571611002087593, 0.019319329410791397, 0.056357163935899734, 1.209968990169777, 0.49703290285663115, 3.374186097855302, 9362.0, 34078.0, 35388.0, 9362.0, 7.933885097503662, 0.11848017573356628, 0.01794438436627388, 0.04611895605921745
645746, -0.04172465205192566, -1.6449464559555054, -0.09114796668291092, 27.45444107055664, 0.9924514293670654, 1.7629367113113403, 3.4097702503204346, 0.10972630977630615, 0.13506454229354858, -0.015570187009871006, 0.0193269532173872, 0.0563245490193367, 1.2151994103141899, 0.4978590586102314, 3.377559210578756, 9362.0, 34078.0, 35388.0, 9362.0, 7.933885097503662, -0.14870500564575195, 0.2538393437862396, 0.11219184845685959
645756, -0.04145979508757591, -1.646213412284851, -0.09257249534130096, 27.48855209350586, 0.9935490489006042, 1.7642868757247925, 3.412583827972412, 0.10979242622852325, 0.13497091829776764, -0.015567393973469734, 0.01932576484978199, 0.056344468146562576, 1.211441363556664, 0.49430240314831053, 3.3701244160100408, 9362.0, 34078.0, 35388.0, 9362.0, 7.933885097503662, 0.11544497311115265, 0.25919458270072937, -0.061882421374320984
645766, -0.04032110422849655, -1.645747184753418, -0.09063110500574112, 27.52269172668457, 0.9946473240852356, 1.7656358480453491, 3.4153966903686523, 0.10985922813415527, 0.13481852412223816, -0.015588165260851383, 0.019329652190208435, 0.056338340044021606, 1.2035879009656174, 0.49424608651725066, 3.3684583449775913, 9362.0, 34078.0, 35388.0, 9362.0, 7.933885097503662, -0.09990168362855911, 0.16231246292591095, 0.17868225276470184
645776, -0.03972138091921806, -1.6467193365097046, -0.08903344720602036, 27.556859970092773, 0.9957462549209595, 1.7669830322265625, 3.418210983276367, 0.10992565751075745, 0.13463027775287628, -0.015576517209410667, 0.01931418851017952, 0.056322693824768066, 1.2103682567905794, 0.49874820507341155, 3.367583649292412, 9362.0, 34078.0, 35388.0, 9362.0, 7.933885097503662, -0.03683207556605339, 0.0545329675078392, 0.02688891999423504
645786, -0.03963564708828926, -1.64832603931427, -0.08989022672176361, 27.59105682373047, 0.9968458414077759, 1.76832914352417, 3.4210281372070312, 0.10999030619859695, 0.13459345698356628, -0.015587525442242622, 0.019326724112033844, 0.05636543035507202, 1.2102450743329345, 0.49576014559806936, 3.3746417371078974, 9362.0, 34078.0, 35388.0, 9362.0, 7.933885097503662, -0.08270673453807831, 0.25202032923698425, -0.025678526610136032
645796, -0.0406353659927845, -1.6499885320663452, -0.09044947475194931, 27.625280380249023, 0.9979460835456848, 1.7696752548217773, 3.4238500595092773, 0.11005394905805588, 0.13463351130485535, -0.015595270320773125, 0.019320540130138397, 0.056353624910116196, 1.2035108975825695, 0.4910479188832255, 3.3633931533364687, 9362.0, 34078.0, 35388.0, 9362.0, 7.933885097503662, -0.1486462503671646, -0.11988689750432968, -0.0444880872964859
645806, -0.04187256470322609, -1.651201605796814, -0.08780180662870407, 27.65953254699707, 0.9990469217300415, 1.7710219621658325, 3.4266748428344727, 0.11011743545532227, 0.1347062587738037, -0.015578696504235268, 0.019318001344799995, 0.056347012519836426, 1.2194773968861135, 0.49383512934522855, 3.3698136525235354, 9362.0, 34078.0, 35388.0, 9362.0, 7.933885097503662, 0.10151699930429459, -0.06505808234214783, 0.19318245351314545
645816, -0.041405193507671356, -1.6520222425460815, -0.08816508203744888, 27.69381332397461, 1.0001484155654907, 1.772369384765625, 3.429502487182617, 0.1101827472448349, 0.13476713001728058, -0.015580237843096256, 0.019323524087667465, 0.05635792762041092, 1.2033747324092883, 0.4937103657839259, 3.368527783153834, 9362.0, 34078.0, 35388.0, 9362.0, 7.933885097503662, -0.02647995948791504, -0.44179582595825195, 0.09596878290176392
645826, -0.04245806485414505, -1.6508328914642334, -0.08761099725961685, 27.72812271118164, 1.0012506246566772, 1.7737168073654175, 3.432328939437866, 0.1102500855922699, 0.13471633195877075, -0.015573500655591488, 0.019315337762236595, 0.05633620545268059, 1.2044377116875278, 0.49205154061564826, 3.3646131105132215, 9362.0, 34078.0, 35388.0, 9362.0, 7.933885097503662, -0.1792822927236557, -0.011428331024944782, -0.4201553165912628
645836, -0.042069219052791595, -1.6515042781829834, -0.08860013633966446, 27.762460708618164, 1.0023534297943115, 1.7750637531280518, 3.435157060623169, 0.11031664907932281, 0.13468249142169952, -0.015575299970805645, 0.01931525580585003, 0.056352876126766205, 1.2148957214602816, 0.483217244628662, 3.372089395091978, 9362.0, 34078.0, 35388.0, 9362.0, 7.933885097503662, -0.08053008466959, -0.2788516581058502, -0.00774481613188982
645846, -0.04185505211353302, -1.651391863822937, -0.08936150372028351, 27.79682731628418, 1.003456950187683, 1.7764114141464233, 3.4379897117614746, 0.11038513481616974, 0.13485878705978394, -0.015584871172904968, 0.01931929960846901, 0.05632372200489044, 1.2140419410546703, 0.491983569083402, 3.3679369382030053, 9362.0, 34078.0, 35388.0, 9362.0, 7.933885097503662, 0.12724746763706207, 0.08277678489685059, 0.0853734090924263
645856, -0.04167972877621651, -1.6543723344802856, -0.0891830325126648, 27.831220626831055, 1.004561185836792, 1.777761459350586, 3.440826892852783, 0.11045297980308533, 0.13514669239521027, -0.01554405689239502, 0.019308628514409065, 0.05649485066533089, 1.132340109298647, 0.5702494857690112, 3.367383313664206, 9362.0, 34078.0, 35388.0, 9362.0, 7.933885097503662, -0.09940850734710693, 0.2704698145389557, -0.1926679164171219
645866, -0.03998543322086334, -1.654663324356079, -0.09023330360651016, 27.865642547607422, 1.0056660175323486, 1.779113531112671, 3.4436588287353516, 0.11052035540342331, 0.1352771371603012, -0.015570009127259254, 0.019331669434905052, 0.0563657209277153, 1.2126841473271537, 0.49943988537501127, 3.3716252779920497, 9362.0, 34078.0, 35388.0, 9362.0, 7.933885097503662, 0.2145705670118332, -0.05648857727646828, -0.10042662173509598
645876, -0.04049934074282646, -1.655381679534912, -0.09028013795614243, 27.90009307861328, 1.0067715644836426, 1.7804667949676514, 3.4464950561523438, 0.11058734357357025, 0.13536542654037476, -0.0155755914747715, 0.019322972744703293, 0.05636607110500336, 1.2147443158193383, 0.4992159259590778, 3.37290534693867, 9362.0, 34078.0, 35388.0, 9362.0, 7.933885097503662, -0.100134938955307, 0.14695943892002106, 0.05130846053361893
645886, -0.040918607264757156, -1.6562377214431763, -0.09027921408414841, 27.934572219848633, 1.0078777074813843, 1.7818212509155273, 3.449333906173706, 0.11065148562192917, 0.13553743064403534, -0.015579589642584324, 0.019327757880091667, 0.05635218322277069, 1.2087629163369529, 0.4995300715945916, 3.3763911003038074, 9362.0, 34078.0, 35388.0, 9362.0, 7.933885097503662, -0.19789104163646698, 0.30193138122558594, -0.053370401263237
645896, -0.04272850975394249, -1.65857994556427, -0.08957923948764801, 27.969079971313477, 1.0089845657348633, 1.7831777334213257, 3.4521753787994385, 0.11071654409170151, 0.1357618123292923, -0.015573137439787388, 0.019333308562636375, 0.056368373334407806, 1.2063423099034398, 0.49750240366708454, 3.372679557317348, 9362.0, 34078.0, 35388.0, 9362.0, 7.933885097503662, -0.360893189907074, 0.05825011059641838, 0.3532146215438843
645906, -0.042989280074834824, -1.6576685905456543, -0.08964816480875015, 28.003616333007812, 1.01009202003479, 1.7845364809036255, 3.4550187587738037, 0.11078236252069473, 0.13599415123462677, -0.01559334434568882, 0.019329311326146126, 0.05636410415172577, 1.2039631018525128, 0.50249266045941, 3.368847805720914, 9362.0, 34078.0, 35388.0, 9362.0, 7.933885097503662, 0.048179470002651215, 0.009492243640124798, -0.13732819259166718
645916, -0.04194573312997818, -1.6586060523986816, -0.09034508466720581, 28.003616333007812, 1.01009202003479, 1.7845364809036255, 3.4550187587738037, 0.11078236252069473, 0.13599415123462677, -0.015567458234727383, 0.019316168501973152, 0.05654510110616684, 1.139273005580727, 0.5645021180208687, 3.3674832548261557, 9362.0, 34078.0, 35388.0, 9362.0, 7.933885097503662, 0.048179470002651215, 0.009492243640124798, -0.13732819259166718
645926, -0.04174569994211197, -1.656454086303711, -0.08878517895936966, 28.07277488708496, 1.0123090744018555, 1.7872563600540161, 3.4606995582580566, 0.11092028766870499, 0.1360282003879547, -0.015585532411932945, 0.019333694130182266, 0.05638252943754196, 1.1931888636521617, 0.49402225340810446, 3.3636452731635544, 9362.0, 34078.0, 35388.0, 9362.0, 7.933885097503662, 0.03660476952791214, 0.10979647934436798, -0.2363695353269577
645936, -0.042456503957509995, -1.656806468963623, -0.09081592410802841, 28.10739517211914, 1.0134185552597046, 1.7886162996292114, 3.4635379314422607, 0.11098767071962357, 0.1359587013721466, -0.015585836954414845, 0.019332481548190117, 0.05636255070567131, 1.204908308981179, 0.49471845913714674, 3.3712543234262013, 9362.0, 34078.0, 35388.0, 9362.0, 7.933885097503662, -0.09889283031225204, -0.2183047980070114, -0.051905758678913116
645946, -0.04254032298922539, -1.6581201553344727, -0.09264621138572693, 28.142044067382812, 1.014528751373291, 1.7899748086929321, 3.466369867324829, 0.11105455458164215, 0.13575302064418793, -0.015578854829072952, 0.019315393641591072, 0.056347742676734924, 1.2132546803649307, 0.49626870779528076, 3.3651189081351096, 9362.0, 34078.0, 35388.0, 9362.0, 7.933885097503662, -0.2142886221408844, -0.1799609661102295, 0.06294486671686172
645956, -0.043033916503190994, -1.657167911529541, -0.09048032760620117, 28.176721572875977, 1.0156396627426147, 1.7913321256637573, 3.469205379486084, 0.11112264543771744, 0.13570839166641235, -0.015591907314956188, 0.019318323582410812, 0.05634400248527527, 1.2073188523727572, 0.4873920424149105, 3.371512692922692, 9362.0, 34078.0, 35388.0, 9362.0, 7.933885097503662, 0.09589851647615433, 0.16827301681041718, 0.05337156355381012
645966, -0.04236898198723793, -1.659019947052002, -0.09214150905609131, 28.211427688598633, 1.0167512893676758, 1.7926888465881348, 3.472043752670288, 0.11119099706411362, 0.1356431543827057, -0.015579555183649063, 0.01931971125304699, 0.05636952072381973, 1.211900313345617, 0.4946525276122884, 3.3695008847159635, 9362.0, 34078.0, 35388.0, 9362.0, 7.933885097503662, -0.05104445293545723, 0.24284577369689941, -0.1924917995929718
