timeTick, roll, pitch, yaw, stateX, stateY, stateZ, stateVX, stateVY, stateVZ, otX0, otY0, otZ0, otRoll0, otPitch0, otYaw0, motor1, motor2, motor3, motor4, voltage, roll rate, pitch rate, yaw rate
389449, 0.0, 0.0, 0.0, 0, 0, 0, 0, 0, 0, -0.10437141358852386, -2.2143752574920654, 0.06957748532295227, 0.009560916693932832, 0.43056543524141944, -1.5382133648715002, 0, 0, 0, 0, 0, 0, 0, 0
389459, -0.0003816651296801865, -0.0020303104538470507, 0.0004953817115165293, 0.0, 0.0, 0.0, 0.0, 0.0, 0.0, -0.10438495129346848, -2.2143776416778564, 0.06960766762495041, 0.00424910436947352, 0.4315880150495559, -1.5591703542265174, 9362.0, 34078.0, 35388.0, 9362.0, 7.636364459991455, -0.014582160860300064, 0.23705518245697021, 0.24802814424037933
389469, -0.0010980371152982116, -0.0023573089856654406, 0.0019543508533388376, 0.0, 0.0, 4.2974716052412987e-07, 3.0455125088479917e-09, 5.725326324146351e-10, 8.594495739089325e-05, -0.10434640198945999, -2.2143454551696777, 0.06957044452428818, 0.008909955118917465, 0.4371865346236632, -1.5482778660877512, 9362.0, 34078.0, 35388.0, 9362.0, 7.616529941558838, 0.10410472750663757, 0.01754465326666832, -0.12582944333553314
389479, -0.00047845844528637826, -0.001701084547676146, 0.0009564537322148681, 1.7421678322193657e-08, 3.2751401590758178e-09, 1.5729456208646297e-06, 3.481599378574174e-06, 6.552584181918064e-07, 0.00014307568199001253, -0.10433187335729599, -2.2143757343292236, 0.06957697123289108, 0.003971147082800454, 0.39986437470244596, -1.545132107404046, 9362.0, 34078.0, 35388.0, 9362.0, 7.616529941558838, -0.129676952958107, 0.0625225082039833, 0.1397387981414795
389489, -0.0014255744172260165, -0.004545385949313641, 0.000980178127065301, 7.242655186701086e-08, 1.9232547998626615e-08, 3.213179297745228e-06, 7.518924121541204e-06, 2.535695330152521e-06, 0.000185369499376975, -0.10434430837631226, -2.214346170425415, 0.06956399977207184, 0.006112483966965332, 0.4306837485285371, -1.5496855274986057, 9362.0, 34078.0, 35388.0, 9362.0, 7.616529941558838, 0.011435470543801785, 0.15903231501579285, -0.042191989719867706
389499, -0.002393232425674796, -0.0065599228255450726, 0.0007788951625116169, 1.6218999121520028e-07, 4.868898884069495e-08, 5.454756319522858e-06, 1.0437633136461955e-05, 3.3568830986041576e-06, 0.00026333960704505444, -0.1043345183134079, -2.214343547821045, 0.06958438456058502, 0.008668510355602057, 0.4409984181191078, -1.5508155715289929, 9362.0, 34078.0, 35388.0, 9362.0, 7.616529941558838, -0.1161835789680481, 0.47525545954704285, 0.4239397644996643
389509, -0.003030244493857026, -0.00879666581749916, 0.002971865003928542, 3.0544947549060453e-07, 9.445349036241169e-08, 7.721944712102413e-06, 1.8211707356385887e-05, 5.794758635602193e-06, 0.0001904857053887099, -0.1043357253074646, -2.214357376098633, 0.06957309693098068, 0.0028392775289311765, 0.4397990362999735, -1.544182775795305, 9362.0, 34078.0, 35388.0, 9362.0, 7.616529941558838, -0.05557321757078171, -0.23874397575855255, -0.32018789649009705
389519, -0.003188036847859621, -0.007472767494618893, 0.00025517880567349494, 5.438068910734728e-07, 1.7291986864620412e-07, 1.0343501344323158e-05, 2.9465230909409e-05, 9.900544682750478e-06, 0.00033421904663555324, -0.10434941947460175, -2.2143561840057373, 0.06956794112920761, 0.006269506449279969, 0.43953776589020777, -1.5472011408866069, 9362.0, 34078.0, 35388.0, 9362.0, 7.616529941558838, -0.09624550491571426, -0.022074544802308083, 0.05216706916689873
389529, -0.004030823241919279, -0.00798233412206173, 0.0004923043888993561, 9.139887424680637e-07, 2.9794779266012483e-07, 1.5143828932195902e-05, 4.4564640120370314e-05, 1.510512811364606e-05, 0.0006262495298869908, -0.1043785959482193, -2.21437406539917, 0.06957846134901047, -0.0004160512090062966, 0.43812256566044994, -1.542693232999553, 9362.0, 34078.0, 35388.0, 9362.0, 7.616529941558838, 0.09113595634698868, 0.1937737762928009, 0.16714425384998322
389539, -0.0031480276957154274, -0.009562556631863117, 0.0014721933985128999, 1.4237730283639394e-06, 4.7636194722144864e-07, 2.2669904865324497e-05, 5.7394467148697004e-05, 2.0581479475367814e-05, 0.0008793594897724688, -0.10433754324913025, -2.214352607727051, 0.06955455243587494, 0.009958471903668359, 0.4364936093087124, -1.550128094438924, 9362.0, 34078.0, 35388.0, 9362.0, 7.616529941558838, 0.0037814565002918243, 0.2731638550758362, 0.1263127624988556
389549, -0.0028592224698513746, -0.012624744325876236, 0.0020306697115302086, 2.0660645532188937e-06, 7.166903515098966e-07, 3.1546223908662796e-05, 7.106418343028054e-05, 2.7484178644954227e-05, 0.0008962913416326046, -0.10437667369842529, -2.2143712043762207, 0.06957712769508362, 0.006334613589492075, 0.43302800806637265, -1.540520120884231, 9362.0, 34078.0, 35388.0, 9362.0, 7.616529941558838, -0.19811032712459564, 0.02406531572341919, -0.2246403992176056
389559, -0.003720722859725356, -0.01469319500029087, -0.000785652082413435, 2.858655534510035e-06, 1.0185123073824798e-06, 4.102464299649e-05, 8.745946979615837e-05, 3.2879859645618126e-05, 0.000999784329906106, -0.1044313833117485, -2.214360237121582, 0.06952013075351715, -0.012259391031472937, 0.3986761925099529, -1.511834164320062, 9362.0, 34078.0, 35388.0, 9362.0, 7.616529941558838, 0.10143783688545227, 0.505737841129303, -0.036310259252786636
389569, -0.0035189292393624783, -0.018497683107852936, 0.00025169982109218836, 3.841488251055125e-06, 1.3718283753405558e-06, 5.175010301172733e-05, 0.00010911259596468881, 3.778448444791138e-05, 0.0011456947540864348, -0.1043732687830925, -2.2143781185150146, 0.06958048045635223, 0.005556750208534294, 0.43209809456445214, -1.5345718951372869, 9362.0, 34078.0, 35388.0, 9362.0, 7.616529941558838, -0.08698171377182007, 0.22260940074920654, -0.053711820393800735
389579, -0.0034805675968527794, -0.020773762837052345, 0.0010588997974991798, 5.058461283624638e-06, 1.7815392538977903e-06, 6.344157736748457e-05, 0.0001342850155197084, 4.415797957335599e-05, 0.0011929989559575915, -0.1043049767613411, -2.2143547534942627, 0.0695948451757431, 0.007045388285174224, 0.39790469463673617, -1.5519892292517896, 9362.0, 34078.0, 35388.0, 9362.0, 7.616529941558838, -0.023297134786844254, -0.25616973638534546, -0.047637175768613815
389589, -0.0023688096553087234, -0.020678063854575157, 0.001431656302884221, 6.559806024597492e-06, 2.2532710772793507e-06, 7.580063538625836e-05, 0.00016598723595961928, 5.018878073315136e-05, 0.001279201707802713, -0.1043631061911583, -2.214362859725952, 0.06961970031261444, 0.001953059330756343, 0.43216788531339034, -1.544764428927616, 9362.0, 34078.0, 35388.0, 9362.0, 7.616529941558838, -0.15981201827526093, -0.1275775134563446, -0.07021108269691467
389599, -0.0027349803131073713, -0.021041106432676315, 0.0007444252842105925, 8.397605597565416e-06, 2.784973275993252e-06, 8.883274858817458e-05, 0.00020157266408205032, 5.615096597466618e-05, 0.0013276312965899706, -0.10434477031230927, -2.2143714427948, 0.06959373503923416, 0.0047350452737715334, 0.3997109488954891, -1.5445308047989392, 9362.0, 34078.0, 35388.0, 9362.0, 7.616529941558838, -0.040443360805511475, 0.10580894351005554, 0.11892486363649368
389609, -0.0027206020895391703, -0.02256513386964798, 0.0004865073424298316, 1.0590550118649844e-05, 3.3667888601485174e-06, 0.00010265357559546828, 0.00023701699683442712, 6.021242734277621e-05, 0.001436921302229166, -0.10434295237064362, -2.2143537998199463, 0.06957776099443436, 0.00040742551913042, 0.43642676479359466, -1.548005109139088, 9362.0, 34078.0, 35388.0, 9362.0, 7.616529941558838, -0.05649261549115181, 0.05634201318025589, 0.019523778930306435
389619, -0.0032279901206493378, -0.022882996127009392, 0.0005987281328998506, 1.3141108865966089e-05, 3.9923629628901836e-06, 0.00011772784637287259, 0.00027309852885082364, 6.490217492682859e-05, 0.0015783344861119986, -0.1043417826294899, -2.2143802642822266, 0.06960143893957138, 0.002120677289762633, 0.39513834211089716, -1.5463453439394872, 9362.0, 34078.0, 35388.0, 9362.0, 7.616529941558838, -0.028984088450670242, 0.06634136289358139, -0.23462142050266266
389629, -0.0030490236822515726, -0.02422807551920414, 0.000125709775602445, 1.6065667296061292e-05, 4.664725111069856e-06, 0.0001345192431472242, 0.00031181436497718096, 6.957206642255187e-05, 0.001780337537638843, -0.10433798283338547, -2.214364767074585, 0.06959013640880585, 0.004737211925724202, 0.39695491594250143, -1.5435859226431698, 9362.0, 34078.0, 35388.0, 9362.0, 7.616529941558838, 0.1185445562005043, 0.16412988305091858, -0.03667427971959114
389639, -0.00214719632640481, -0.026373213157057762, 0.0013320617144927382, 1.9379935110919178e-05, 5.388114004745148e-06, 0.00015288818394765258, 0.0003510418173391372, 7.510504656238481e-05, 0.0018938431749120355, -0.104365773499012, -2.2143635749816895, 0.06958526372909546, 0.003089525401724883, 0.44094462314151883, -1.5440238495084606, 9362.0, 34078.0, 35388.0, 9362.0, 7.616529941558838, 0.06513834744691849, 0.03934831544756889, -0.06905985623598099
389649, -0.001445013447664678, -0.02746579423546791, 0.001744945184327662, 2.309783303644508e-05, 6.165275408420712e-06, 0.00017198483692482114, 0.00039253890281543136, 8.032761979848146e-05, 0.0019258692627772689, -0.10438232868909836, -2.2143707275390625, 0.06959210336208344, 0.008551720524176815, 0.42982825282879844, -1.5415195489306688, 9362.0, 34078.0, 35388.0, 9362.0, 7.616529941558838, -0.07270101457834244, 0.12257321923971176, 0.0916757732629776
389659, -0.0023423621896654367, -0.02901151031255722, 0.002406792249530554, 2.7249094273429364e-05, 6.986946573306341e-06, 0.00019144947873428464, 0.0004377140139695257, 8.40063948999159e-05, 0.00196745409630239, -0.10433851927518845, -2.2143661975860596, 0.06959530711174011, 0.007729389961865454, 0.39518020952144184, -1.5475700419814138, 9362.0, 34078.0, 35388.0, 9362.0, 7.616529941558838, 0.3217102289199829, 0.29649806022644043, 0.03944798931479454
389669, -0.0002468199818395078, -0.03170833736658096, 0.0031947889365255833, 3.1862051400821656e-05, 7.839424142730422e-06, 0.00021256017498672009, 0.00048488553147763014, 8.64942412590608e-05, 0.0022550681605935097, -0.10437684506177902, -2.2143752574920654, 0.06960789114236832, 0.00024831342411189275, 0.42706321215297294, -1.5500521794427478, 9362.0, 34078.0, 35388.0, 9362.0, 7.616529941558838, -0.09477020800113678, 0.21723142266273499, 0.04525623470544815
389679, -0.001146808615885675, -0.03200835362076759, 0.0025805975310504436, 3.6959674616809934e-05, 8.724462531972677e-06, 0.00023591273929923773, 0.0005346467951312661, 9.050821245182306e-05, 0.002415823983028531, -0.104340098798275, -2.214354991912842, 0.06958930939435959, 0.004620492521837434, 0.43811101217636406, -1.5450793313564155, 9362.0, 34078.0, 35388.0, 9362.0, 7.636364459991455, -0.108990378677845, -0.19688403606414795, -0.23454339802265167
389689, -0.002035048557445407, -0.032038602977991104, 0.0010245140874758363, 4.257773980498314e-05, 9.631673492549453e-06, 0.0002603386528789997, 0.000588966824579984, 9.09343216335401e-05, 0.002469733590260148, -0.10437682271003723, -2.2143754959106445, 0.0695914700627327, -0.001493425612711933, 0.42702214067077193, -1.5417293488521993, 9362.0, 34078.0, 35388.0, 9362.0, 7.636364459991455, 0.05223928019404411, 0.08634979277849197, 0.09414151310920715
389699, -0.0014763716608285904, -0.03207588195800781, 0.0016134204342961311, 4.8741760110715404e-05, 1.0550858860369772e-05, 0.0002856325008906424, 0.0006438372074626386, 9.290308662457392e-05, 0.00258941063657403, -0.10433332622051239, -2.214355707168579, 0.06959172338247299, 0.0038218493381939563, 0.434085378526305, -1.5454058733528904, 9362.0, 34078.0, 35388.0, 9362.0, 7.616529941558838, 0.1168406754732132, -0.29607316851615906, -0.04870178550481796
389709, -0.0009697245550341904, -0.030367406085133553, 0.0019177758367732167, 5.545524982153438e-05, 1.1497369996504858e-05, 0.0003130311379209161, 0.000698861142154783, 9.639672498451546e-05, 0.0028906974475830793, -0.10437396913766861, -2.2143664360046387, 0.0696067288517952, 0.0008789206891329464, 0.42975904720054814, -1.5448596457364283, 9362.0, 34078.0, 35388.0, 9362.0, 7.616529941558838, -0.1742546409368515, -0.1774240881204605, -0.28623339533805847
389719, -0.0015211005229502916, -0.03004523739218712, -9.863295417744666e-05, 6.271875463426113e-05, 1.2473997230699752e-05, 0.00034246442373842, 0.000753836240619421, 9.89281470538117e-05, 0.00299633271060884, -0.10429590195417404, -2.2143478393554688, 0.06958819180727005, 0.011234983776781428, 0.40805150921721633, -1.5426257415885254, 9362.0, 34078.0, 35388.0, 9362.0, 7.616529941558838, 0.0792132318019867, -0.27994340658187866, -0.17871613800525665
389729, -0.0005374230677261949, -0.02968115173280239, -0.001111204968765378, 7.051719876471907e-05, 1.347159286524402e-05, 0.00037264078855514526, 0.0008058528183028102, 0.00010058952466351911, 0.003039323491975665, -0.10422734171152115, -2.214358329772949, 0.0695016086101532, -0.019742669227826002, 0.4527838213034272, -1.5931952206034958, 9362.0, 34078.0, 35388.0, 9362.0, 7.616529941558838, 0.14435869455337524, 0.22785860300064087, -0.20025798678398132
389739, 0.0013671782799065113, -0.03240120783448219, -0.0017913293559104204, 7.88326287874952e-05, 1.449049432267202e-05, 0.00040244811680167913, 0.0008572348160669208, 0.00010319180000806227, 0.002922521438449621, -0.10434048622846603, -2.214357614517212, 0.06958385556936264, 0.011072945209212598, 0.441865659773498, -1.5402195797280627, 9362.0, 34078.0, 35388.0, 9362.0, 7.636364459991455, 0.03823944181203842, 0.17466557025909424, 0.06226714327931404
389749, 0.0013067215913906693, -0.03249136358499527, -0.0016107507981359959, 8.765889651840553e-05, 1.5527004507021047e-05, 0.00043133844155818224, 0.0009080162271857262, 0.0001041119612636976, 0.0028559223283082247, -0.10433913767337799, -2.214348793029785, 0.0695909634232521, 0.009605813240025246, 0.43990783462311356, -1.5448185228217477, 9362.0, 34078.0, 35388.0, 9362.0, 7.636364459991455, 0.09384863823652267, -0.4840484857559204, 0.03546550124883652
389759, 0.002467748010531068, -0.03101889230310917, -0.00218895822763443, 9.70170003711246e-05, 1.655638698139228e-05, 0.000460884184576571, 0.0009636044851504266, 0.00010176506475545466, 0.003053609048947692, -0.10437633097171783, -2.2143704891204834, 0.06962443888187408, 0.004589746220095879, 0.4331052729360465, -1.5433936901861949, 9362.0, 34078.0, 35388.0, 9362.0, 7.616529941558838, 0.051276836544275284, 0.3521934449672699, -0.05014842376112938
389769, 0.0025560047943145037, -0.03450297936797142, -0.0047264546155929565, 0.00010693200601963326, 1.7562810171511956e-05, 0.0004928461275994778, 0.0010193896014243364, 9.95133159449324e-05, 0.003339158371090889, -0.10437583923339844, -2.2143795490264893, 0.06959967315196991, 0.0061308770449430726, 0.4327309434817437, -1.5477052308587342, 9362.0, 34078.0, 35388.0, 9362.0, 7.616529941558838, 0.2517252564430237, -0.11637382954359055, 0.03751068562269211
389779, 0.003104453906416893, -0.0346333347260952, -0.005018296185880899, 0.00011739165347535163, 1.8536789866629988e-05, 0.0005266200168989599, 0.001072544720955193, 9.528030932415277e-05, 0.003416001098230481, -0.10427016019821167, -2.214348316192627, 0.06949248909950256, -0.021165268012842863, 0.48217670513488997, -1.5905458741928262, 9362.0, 34078.0, 35388.0, 9362.0, 7.616529941558838, 0.16484364867210388, 0.3482813835144043, -0.1505511850118637
389789, 0.0032135716173797846, -0.037367504090070724, -0.006679566111415625, 0.00012841260468121618, 1.946767770277802e-05, 0.0005609942600131035, 0.0011316454038023949, 9.089650848181918e-05, 0.003459244268015027, -0.10434591770172119, -2.214348316192627, 0.06959523260593414, 0.0050954749795060145, 0.43872327352045204, -1.5456213885689525, 9362.0, 34078.0, 35388.0, 9362.0, 7.616529941558838, 0.009080535732209682, -0.13131307065486908, 0.00515354098752141
389799, 0.0031962962821125984, -0.03737222030758858, -0.007158723194152117, 0.00014002597890794277, 2.035000034084078e-05, 0.0005963107105344534, 0.0011910374742001295, 8.556611282983795e-05, 0.0036044656299054623, -0.10434330999851227, -2.214348316192627, 0.06957219541072845, 0.006223810981730982, 0.44532932905150346, -1.548499531374562, 9362.0, 34078.0, 35388.0, 9362.0, 7.616529941558838, -0.05315990000963211, -0.017985008656978607, 0.015646981075406075
389809, 0.0035765639040619135, -0.037722960114479065, -0.007479336112737656, 0.00015225641254801303, 2.1178098904783837e-05, 0.000632612791378051, 0.0012550500687211752, 8.005306881386787e-05, 0.0036563535686582327, -0.10434664040803909, -2.214353561401367, 0.06958593428134918, 0.00520929641883711, 0.4319813095225129, -1.5448512783781716, 9362.0, 34078.0, 35388.0, 9362.0, 7.636364459991455, -0.15437613427639008, 0.07409736514091492, 0.1040034219622612
389819, 0.002806778298690915, -0.03794727474451065, -0.006889808923006058, 0.00016512702859472483, 2.1951211238047108e-05, 0.0006694456678815186, 0.0013190723257139325, 7.456874300260097e-05, 0.0037106184754520655, -0.10426470637321472, -2.214357852935791, 0.0694873183965683, -0.023155877137543714, 0.4915174892757932, -1.597651646042638, 9362.0, 34078.0, 35388.0, 9362.0, 7.616529941558838, -0.09891717880964279, -0.21308282017707825, 0.036635465919971466
389829, 0.0028883989434689283, -0.03738304227590561, -0.0063097598031163216, 0.0001786408683983609, 2.2666221411782317e-05, 0.0007068150443956256, 0.0013836947036907077, 6.843472510809079e-05, 0.0037636631168425083, -0.1043521910905838, -2.2143537998199463, 0.06959890574216843, 0.005018691516073452, 0.435762203780655, -1.5511745718833363, 9362.0, 34078.0, 35388.0, 9362.0, 7.636364459991455, -0.16306820511817932, -0.038761381059885025, -0.22452647984027863
389839, 0.00257400656118989, -0.03799420967698097, -0.00792721938341856, 0.00019280223932582885, 2.3326532755163498e-05, 0.0007437985623255372, 0.0014485812280327082, 6.362848216667771e-05, 0.00363345118239522, -0.10437088459730148, -2.2143728733062744, 0.06959442049264908, 0.009085091910398649, 0.4390300828894169, -1.5411862697574827, 9362.0, 34078.0, 35388.0, 9362.0, 7.616529941558838, -0.06473653763532639, 0.34393182396888733, 0.4009603261947632
389849, 0.0033215079456567764, -0.04009343683719635, -0.005678479094058275, 0.0002076077798847109, 2.393807881162502e-05, 0.0007796675781719387, 0.0015125250210985541, 5.867839718121104e-05, 0.0035407559480518103, -0.10438700020313263, -2.2143759727478027, 0.06960733979940414, 0.01170232345643977, 0.4299293032736671, -1.548789701109062, 9362.0, 34078.0, 35388.0, 9362.0, 7.636364459991455, 0.11851532012224197, 0.15062077343463898, 0.16322165727615356
389859, 0.004039646126329899, -0.04199405014514923, -0.006053802091628313, 0.00022305799939204007, 2.4502802261849865e-05, 0.0008146301843225956, 0.0015775150386616588, 5.426997086033225e-05, 0.003452167147770524, -0.10433948040008545, -2.214351177215576, 0.06960341334342957, 0.004773554408329154, 0.43846799199138786, -1.5337919352949247, 9362.0, 34078.0, 35388.0, 9362.0, 7.616529941558838, -0.056315064430236816, 0.14145299792289734, 0.018049059435725212
389869, 0.004226218443363905, -0.04301349073648453, -0.005987774580717087, 0.00023917593352962285, 2.5017070583999157e-05, 0.0008485178113915026, 0.0016460685292258859, 4.858468673774041e-05, 0.0033257442992180586, -0.10437978059053421, -2.2143590450286865, 0.06962252408266068, 0.004179127515544723, 0.4348506515914323, -1.5523363490050517, 9362.0, 34078.0, 35388.0, 9362.0, 7.616529941558838, -0.10931412875652313, -0.08443614095449448, -0.32139521837234497
389879, 0.004078615922480822, -0.042477797716856, -0.007752493489533663, 0.0002559964486863464, 2.5468265448580496e-05, 0.00088221620535478, 0.0017180349677801132, 4.1654104279587045e-05, 0.0034143265802413225, -0.10434865206480026, -2.2143714427948, 0.06964655965566635, 0.0051349057609720895, 0.40193479128120657, -1.5459974967013805, 9362.0, 34078.0, 35388.0, 9362.0, 7.616529941558838, 0.15230926871299744, 0.36014270782470703, -0.09120162576436996
389889, 0.004438868258148432, -0.04488656669855118, -0.009405983611941338, 0.00027354498161002994, 2.584859248599969e-05, 0.0009162939968518913, 0.0017916708020493388, 3.440907676122151e-05, 0.0034016158897429705, -0.10431364178657532, -2.2143588066101074, 0.069486103951931, -0.019852411091939026, 0.48632051509076746, -1.5946068089796706, 9362.0, 34078.0, 35388.0, 9362.0, 7.616529941558838, 0.20491787791252136, 0.27340978384017944, -0.006451960653066635
389899, 0.004958926700055599, -0.0478128083050251, -0.009653465822339058, 0.0002918255631811917, 2.615769517433364e-05, 0.0009506138740107417, 0.0018644464435055852, 2.7409143513068557e-05, 0.0034627497661858797, -0.10433762520551682, -2.214355707168579, 0.06961224973201752, 0.0017598218157675676, 0.43419060798939313, -1.5493911778201128, 9362.0, 34078.0, 35388.0, 9362.0, 7.616529941558838, 0.012415213510394096, -0.18290771543979645, -0.08988653123378754
389909, 0.00434301421046257, -0.04672873392701149, -0.009907610714435577, 0.00031085533555597067, 2.639361991896294e-05, 0.0009865693282335997, 0.0019415204878896475, 1.977307692868635e-05, 0.003728749928995967, -0.10427852720022202, -2.2143571376800537, 0.06953923404216766, -0.021697010595808162, 0.44706320983465275, -1.59071235810234, 9362.0, 34078.0, 35388.0, 9362.0, 7.616529941558838, 0.08142734318971634, 0.07479295134544373, -0.0835922583937645
389919, 0.004711297806352377, -0.047156453132629395, -0.010273926891386509, 0.00033068086486309767, 2.6548723326413892e-05, 0.0010250716004520655, 0.002023580949753523, 1.1249954695813358e-05, 0.003972095437347889, -0.10435658693313599, -2.214365005493164, 0.06962594389915466, 0.006726639080980832, 0.40127845997656664, -1.5559584369301744, 9362.0, 34078.0, 35388.0, 9362.0, 7.616529941558838, -0.20855484902858734, -0.24679751694202423, 0.14834506809711456
389929, 0.0042003607377409935, -0.04752934351563454, -0.008567813783884048, 0.00035131722688674927, 2.6623923986335285e-05, 0.0010654383804649115, 0.0021036937832832336, 3.788993353737169e-06, 0.004101645667105913, -0.10438159853219986, -2.2143702507019043, 0.0695885494351387, 0.0049441285958460365, 0.43166722033828364, -1.540289506959276, 9362.0, 34078.0, 35388.0, 9362.0, 7.616529941558838, -0.13148485124111176, 0.22701844573020935, 0.03459807485342026
389939, 0.004516977351158857, -0.050838302820920944, -0.00787584763020277, 0.00037275810609571636, 2.6621384677127935e-05, 0.0011067466111853719, 0.0021844806615263224, -4.293900019547436e-06, 0.004160376265645027, -0.10438776761293411, -2.2143661975860596, 0.06959056854248047, 0.0017457257144674286, 0.4364777317036044, -1.5436100713941063, 9362.0, 34078.0, 35388.0, 9362.0, 7.636364459991455, 0.0017118611140176654, 0.1573626846075058, 0.2718859612941742
389949, 0.005212968681007624, -0.05262528732419014, -0.006455732975155115, 0.000395010196371004, 2.654239142430015e-05, 0.0011488342424854636, 0.0022659441456198692, -1.1504458598210476e-05, 0.004257527645677328, -0.10435732454061508, -2.2143805027008057, 0.06962897628545761, -0.00022117237152093495, 0.4012952726781407, -1.546446882273683, 9362.0, 34078.0, 35388.0, 9362.0, 7.616529941558838, -0.07985980063676834, -0.17889107763767242, -0.37189653515815735
389959, 0.004953980445861816, -0.05229047313332558, -0.007194479927420616, 0.0004181056865490973, 2.6388544938527048e-05, 0.0011923381825909019, 0.0023531573824584484, -1.926501681737136e-05, 0.004443636629730463, -0.10434427112340927, -2.2143497467041016, 0.06961651891469955, -6.808994013102228e-05, 0.43946487412742385, -1.5447119325993224, 9362.0, 34078.0, 35388.0, 9362.0, 7.616529941558838, -0.03468003123998642, 0.17434148490428925, 0.07843699306249619
389969, 0.0050723981112241745, -0.05390253663063049, -0.007003993261605501, 0.00044208834879100323, 2.61511595454067e-05, 0.0012373966164886951, 0.002443373668938875, -2.8212583856657147e-05, 0.004568449221551418, -0.1044267937541008, -2.214359998703003, 0.06953633576631546, -0.012102477161471387, 0.4023759316939959, -1.5161165754008739, 9362.0, 34078.0, 35388.0, 9362.0, 7.616529941558838, -0.0026641355361789465, 0.18252354860305786, -0.26569363474845886
389979, 0.005543335806578398, -0.05416617915034294, -0.009206640534102917, 0.0004669703484978527, 2.5826508135651238e-05, 0.0012837647227570415, 0.0025330311618745327, -3.6717698094435036e-05, 0.004705536644905806, -0.10427635163068771, -2.2143476009368896, 0.06946982443332672, -0.02271242895911731, 0.4874780877771343, -1.5919684766958853, 9362.0, 34078.0, 35388.0, 9362.0, 7.636364459991455, 0.04037601873278618, -0.22523324191570282, -0.5511597990989685
389989, 0.005540183279663324, -0.05336645990610123, -0.011798852123320103, 0.0004927623085677624, 2.541583489801269e-05, 0.0013310047797858715, 0.0026253550313413143, -4.542091119219549e-05, 0.004742875229567289, -0.10436897724866867, -2.214359760284424, 0.06961862742900848, 0.0051779770240891025, 0.43874230357931765, -1.5433496273178946, 9362.0, 34078.0, 35388.0, 9362.0, 7.616529941558838, -0.01110303495079279, 0.17404919862747192, -0.2168668657541275
389999, 0.0056962063536047935, -0.054910387843847275, -0.011454112827777863, 0.0005194794503040612, 2.491410486982204e-05, 0.0013783362228423357, 0.0027180765755474567, -5.492924901773222e-05, 0.004723815247416496, -0.10435444116592407, -2.214359998703003, 0.06960189342498779, 0.005550605864700966, 0.4415531846576357, -1.5422616507615166, 9362.0, 34078.0, 35388.0, 9362.0, 7.636364459991455, -0.09464673697948456, 0.34717702865600586, -0.03300740569829941
390009, 0.004400728270411491, -0.055906031280756, -0.010322476737201214, 0.0005471164477057755, 2.4317354473168962e-05, 0.0014249050291255116, 0.002809318946674466, -6.441990990424529e-05, 0.004590356722474098, -0.10434158891439438, -2.2143495082855225, 0.06958813220262527, 0.0034785428804905254, 0.4381439246407126, -1.548141356604851, 9362.0, 34078.0, 35388.0, 9362.0, 7.636364459991455, 0.13150155544281006, -0.10244345664978027, 0.01703523099422455
390019, 0.005840456113219261, -0.05672968178987503, -0.010965051129460335, 0.0005756788305006921, 2.362438681302592e-05, 0.0014698989689350128, 0.0029031559824943542, -7.41757030482404e-05, 0.004408826120197773, -0.10438504815101624, -2.2143683433532715, 0.06959929317235947, 0.005670287759924492, 0.4316835879415919, -1.5526370340650844, 9362.0, 34078.0, 35388.0, 9362.0, 7.616529941558838, 0.225093811750412, 0.06069149449467659, -0.07320977002382278
390029, 0.0072835092432796955, -0.058819063007831573, -0.012118902988731861, 0.0006051889504306018, 2.2844873456051573e-05, 0.001513939118012786, 0.002998865908011794, -8.172784873750061e-05, 0.004399614874273539, -0.10434718430042267, -2.214343547821045, 0.06957324594259262, 0.009526444577514953, 0.44125917869669706, -1.547693775557421, 9362.0, 34078.0, 35388.0, 9362.0, 7.616529941558838, 0.08756320923566818, 0.03777620568871498, 0.00017343831132166088
390039, 0.007764639798551798, -0.05773992836475372, -0.0129586486145854, 0.0006356631056405604, 2.1977521100779995e-05, 0.001557765295729041, 0.003095960011705756, -9.174391743727028e-05, 0.004365993198007345, -0.10427919030189514, -2.214360475540161, 0.06950589269399643, -0.02383089263267591, 0.4499698003340029, -1.5963577801405138, 9362.0, 34078.0, 35388.0, 9362.0, 7.616529941558838, -0.009367210790514946, 0.056517094373703, -0.3985692262649536
390049, 0.008092161267995834, -0.057699479162693024, -0.01614835299551487, 0.0006671266164630651, 2.099757875839714e-05, 0.0016017737798392773, 0.003196735866367817, -0.00010424675565445796, 0.004436087794601917, -0.10437963157892227, -2.214366912841797, 0.06962815672159195, 0.0024120415382369456, 0.4343105840995065, -1.5412516771370441, 9362.0, 34078.0, 35388.0, 9362.0, 7.636364459991455, -0.15929855406284332, -0.27493947744369507, 0.21763260662555695
390059, 0.0075352867133915424, -0.05737338587641716, -0.013584118336439133, 0.0006995886215008795, 1.9888477254426107e-05, 0.001646507764235139, 0.0032956679351627827, -0.00011757956235669553, 0.004511106293648481, -0.10434817522764206, -2.214350461959839, 0.06958333402872086, 0.00305200788547924, 0.43656615286874967, -1.5462022104827535, 9362.0, 34078.0, 35388.0, 9362.0, 7.636364459991455, -0.02026340924203396, -0.1258193850517273, -0.17075926065444946
390069, 0.007614813279360533, -0.05868476256728172, -0.014646909199655056, 0.0007330387015827, 1.8643340808921494e-05, 0.001691091456450522, 0.0033943504095077515, -0.0001314442342845723, 0.004406023770570755, -0.10432340204715729, -2.2143421173095703, 0.06962049007415771, 0.00623958722061216, 0.39606336055356905, -1.5531203709842045, 9362.0, 34078.0, 35388.0, 9362.0, 7.616529941558838, 0.011478227563202381, 0.14032162725925446, 0.10172521322965622
390079, 0.00794957671314478, -0.058410219848155975, -0.014634261839091778, 0.0007674728403799236, 1.726434493320994e-05, 0.00173461576923728, 0.00349247083067894, -0.00014435674529522657, 0.004299221094697714, -0.10435055196285248, -2.214365243911743, 0.06963153183460236, 0.002983553241485218, 0.39969282167751885, -1.5447052005904345, 9362.0, 34078.0, 35388.0, 9362.0, 7.616529941558838, -0.04524979367852211, 0.08162686973810196, 0.020212668925523758
390089, 0.008218886330723763, -0.059014033526182175, -0.013841399922966957, 0.0008028993615880609, 1.5755531421746127e-05, 0.0017770648701116443, 0.0035928350407630205, -0.00015740515664219856, 0.004190984182059765, -0.10430817306041718, -2.2143666744232178, 0.06947494298219681, -0.02484554842620845, 0.49108321901613294, -1.589333833811963, 9362.0, 34078.0, 35388.0, 9362.0, 7.616529941558838, -0.06536749005317688, -0.2124975025653839, 0.08494690805673599
390099, 0.007977879606187344, -0.05872128903865814, -0.013261904940009117, 0.0008393278694711626, 1.411327684763819e-05, 0.001819118158891797, 0.0036928695626556873, -0.00017104446305893362, 0.004220048896968365, -0.1043197438120842, -2.214360475540161, 0.06956077367067337, 0.013892988038714792, 0.4071129615918494, -1.5484199051456202, 9362.0, 34078.0, 35388.0, 9362.0, 7.616529941558838, -0.17146939039230347, 0.15154489874839783, -0.05799151211977005
390109, 0.006652278359979391, -0.06072051078081131, -0.012551053427159786, 0.0008767623803578317, 1.2332265214354265e-05, 0.0018619049806147814, 0.0037940286565572023, -0.00018515632837079465, 0.004337691236287355, -0.10431637614965439, -2.2143495082855225, 0.06961182504892349, 0.008214886388477848, 0.4035254634407863, -1.5595651436924376, 9362.0, 34078.0, 35388.0, 9362.0, 7.616529941558838, 0.2846631109714508, 0.2435789406299591, -0.000633259944152087
390119, 0.008295745588839054, -0.06350746005773544, -0.011760682798922062, 0.0009152061538770795, 1.0412179108243436e-05, 0.001906067249365151, 0.0038947330322116613, -0.0001988561125472188, 0.004495151806622744, -0.10439428687095642, -2.2143638134002686, 0.06957701593637466, 0.008327943057391629, 0.44188381559368395, -1.5439997822288496, 9362.0, 34078.0, 35388.0, 9362.0, 7.616529941558838, -0.23070883750915527, 0.14622125029563904, 0.07041534036397934
390129, 0.007275986950844526, -0.06400641053915024, -0.011324143037199974, 0.0009546722285449505, 8.36667459225282e-06, 0.0019499885383993387, 0.003998466767370701, -0.00021023742738179862, 0.0042895181104540825, -0.10438180714845657, -2.2143635749816895, 0.06961065530776978, 0.004149499522494499, 0.43081356966740714, -1.5515362269121786, 9362.0, 34078.0, 35388.0, 9362.0, 7.616529941558838, 0.14042969048023224, 0.01098835188895464, -0.12273843586444855
390139, 0.008565048687160015, -0.06468834728002548, -0.011851301416754723, 0.000995200127363205, 6.1932296375744045e-06, 0.0019924724474549294, 0.004107107874006033, -0.000224452160182409, 0.004207666032016277, -0.10437828302383423, -2.214362382888794, 0.06962600350379944, -0.0030446315707135896, 0.42362810524903693, -1.5503106819546368, 9362.0, 34078.0, 35388.0, 9362.0, 7.616529941558838, -0.03669678419828415, 0.44722190499305725, 0.11039654165506363
390149, 0.007851650007069111, -0.06875539571046829, -0.011383440345525742, 0.0010368198854848742, 3.886220383719774e-06, 0.002035261131823063, 0.0042168558575212955, -0.00023695387062616646, 0.004350435920059681, -0.10439097881317139, -2.214374542236328, 0.0695917084813118, 0.004000226440232136, 0.43688108191074093, -1.540082413133695, 9362.0, 34078.0, 35388.0, 9362.0, 7.616529941558838, 0.024077152833342552, 0.1663026660680771, 0.15383855998516083
390159, 0.007858998142182827, -0.07015638798475266, -0.010696731507778168, 0.001079542562365532, 1.4432027910515899e-06, 0.0020790346898138523, 0.004327674861997366, -0.0002516480744816363, 0.004404624458402395, -0.1043488010764122, -2.2143683433532715, 0.06961192935705185, 0.0008773221535104479, 0.3915690645809491, -1.5457538336632193, 9362.0, 34078.0, 35388.0, 9362.0, 7.616529941558838, 0.019301004707813263, -0.3068278133869171, 0.20304429531097412
390169, 0.0068395440466701984, -0.0693841204047203, -0.009119167923927307, 0.0011234079720452428, -1.1406209523556754e-06, 0.0021231486462056637, 0.004445409867912531, -0.00026511528994888067, 0.004418565426021814, -0.10432978719472885, -2.2143619060516357, 0.06959229707717896, 0.010413602860983074, 0.408479499169772, -1.544437577044345, 9362.0, 34078.0, 35388.0, 9362.0, 7.616529941558838, 0.049590203911066055, -0.27933210134506226, -0.16619063913822174
390179, 0.007682388182729483, -0.06914163380861282, -0.01080241147428751, 0.0011684632627293468, -3.859233402181417e-06, 0.0021678307093679905, 0.004565647337585688, -0.00027860220870934427, 0.0045182672329247, -0.10438699275255203, -2.2143607139587402, 0.06960026919841766, 0.011821340608527034, 0.43905986035093747, -1.5485465507146825, 9362.0, 34078.0, 35388.0, 9362.0, 7.616529941558838, 0.06206103414297104, 0.04453175887465477, 0.20821258425712585
390189, 0.008025002665817738, -0.07024120539426804, -0.010013183578848839, 0.0012147141387686133, -6.7039477471553255e-06, 0.00221339613199234, 0.0046845353208482265, -0.00029034537146799266, 0.004595215432345867, -0.10436122864484787, -2.2143471240997314, 0.06958013772964478, 0.004410429983184495, 0.43625931879276436, -1.547812207642598, 9362.0, 34078.0, 35388.0, 9362.0, 7.616529941558838, 0.11329030990600586, 0.30152469873428345, -0.10957375913858414
390199, 0.008763138204813004, -0.0737776905298233, -0.010874660685658455, 0.0012621523346751928, -9.673387467046268e-06, 0.0022601489908993244, 0.004803111776709557, -0.0003035420668311417, 0.0047557298094034195, -0.10429950058460236, -2.2143404483795166, 0.06961299479007721, 0.0023894636252008083, 0.4039034874759295, -1.550461766357163, 9362.0, 34078.0, 35388.0, 9362.0, 7.636364459991455, -0.02267911471426487, 0.1860405057668686, 0.059194475412368774
390209, 0.008518107235431671, -0.07538793981075287, -0.010488921776413918, 0.0013107844861224294, -1.2777585652656853e-05, 0.0023075013887137175, 0.004923321772366762, -0.0003172988072037697, 0.004715144168585539, -0.1043875589966774, -2.2143774032592773, 0.06959328055381775, 0.00234470884940276, 0.439014868131153, -1.5435478573579557, 9362.0, 34078.0, 35388.0, 9362.0, 7.616529941558838, 0.024164291098713875, 0.40690046548843384, -0.18271984159946442
390219, 0.009085651487112045, -0.07830149680376053, -0.011315765790641308, 0.0013606483116745949, -1.6025598597479984e-05, 0.002353907562792301, 0.0050494433380663395, -0.0003323037235531956, 0.0045664650388062, -0.10437967628240585, -2.2143661975860596, 0.06959464401006699, -0.00023634581951634902, 0.4299007730830624, -1.5424382142754944, 9362.0, 34078.0, 35388.0, 9362.0, 7.636364459991455, -0.08392728120088577, 0.4086553156375885, 0.0417499765753746
390229, 0.008447274565696716, -0.08126569539308548, -0.009649592451751232, 0.0014117876999080181, -1.9421633624006063e-05, 0.0023992913775146008, 0.0051784394308924675, -0.00034690467873588204, 0.004510663915425539, -0.10441282391548157, -2.214348316192627, 0.06956291943788528, -0.005774454309161852, 0.4021570506771184, -1.5065202562752926, 9362.0, 34078.0, 35388.0, 9362.0, 7.636364459991455, -0.1322828233242035, 0.4777867794036865, 0.04354497790336609
390239, 0.007126376498490572, -0.08409558981657028, -0.009547318331897259, 0.0014642435126006603, -2.296871753060259e-05, 0.002445172518491745, 0.005312722641974688, -0.00036250631092116237, 0.004665939137339592, -0.10436078161001205, -2.214357852935791, 0.06958566606044769, 0.01019632812335557, 0.4396284781378199, -1.546957933277081, 9362.0, 34078.0, 35388.0, 9362.0, 7.616529941558838, 0.2087041586637497, -0.03350982815027237, -0.06351211667060852
390249, 0.008339550346136093, -0.08496919274330139, -0.01072760857641697, 0.0015180679038167, -2.666636100912001e-05, 0.002492829691618681, 0.005452154204249382, -0.00037701756809838116, 0.004865861497819424, -0.10435891151428223, -2.2143590450286865, 0.06958621740341187, 0.010507877495004692, 0.43818929946516505, -1.54817764940446, 9362.0, 34078.0, 35388.0, 9362.0, 7.636364459991455, -0.1591639369726181, -0.30595114827156067, -0.1703670471906662
390259, 0.007361170835793018, -0.08442976325750351, -0.011355060152709484, 0.0015733098844066262, -3.0497711122734472e-05, 0.0025418635923415422, 0.005596249829977751, -0.00038925703847780824, 0.0049412986263632774, -0.10430295020341873, -2.214339256286621, 0.06961062550544739, 0.005455452475361629, 0.40146712974302545, -1.5504633903881933, 9362.0, 34078.0, 35388.0, 9362.0, 7.636364459991455, 0.2657679617404938, 0.16718246042728424, 0.15684102475643158
390269, 0.008766801096498966, -0.08545899391174316, -0.011764748021960258, 0.0016300006536766887, -3.446189657552168e-05, 0.002591877244412899, 0.0057419054210186005, -0.00040358008118346334, 0.005061831325292587, -0.10434623062610626, -2.214353561401367, 0.06958722323179245, 0.0098257688677022, 0.4390230292819126, -1.5430326146807847, 9362.0, 34078.0, 35388.0, 9362.0, 7.616529941558838, 0.21154692769050598, -0.2903019189834595, -0.08746637403964996
390279, 0.009225928224623203, -0.08397823572158813, -0.012260418385267258, 0.0016881435876712203, -3.856094917864539e-05, 0.0026432087179273367, 0.005886673927307129, -0.000416235183365643, 0.005204840563237667, -0.10438861697912216, -2.21437668800354, 0.06961490213871002, 0.00617931294578718, 0.43639261145753494, -1.5468620477554589, 9362.0, 34078.0, 35388.0, 9362.0, 7.616529941558838, 0.030445614829659462, -0.29988813400268555, 0.027927400544285774
390289, 0.009587861597537994, -0.08258970826864243, -0.012982680462300777, 0.0017477428773418069, -4.2798605136340484e-05, 0.002695927396416664, 0.0060331872664391994, -0.00043129842379130423, 0.005339299328625202, -0.1043388620018959, -2.214344024658203, 0.06958996504545212, 0.0027114983136637258, 0.43647123063999516, -1.5479536477906946, 9362.0, 34078.0, 35388.0, 9362.0, 7.616529941558838, 0.06525629758834839, 0.3151836395263672, -0.034870583564043045
390299, 0.009866168722510338, -0.08465024083852768, -0.012368109077215195, 0.0018087939824908972, -4.7190755140036345e-05, 0.0027494998648762703, 0.006177020724862814, -0.00044713335228152573, 0.005375570151954889, -0.10433809459209442, -2.2143492698669434, 0.06958355009555817, 0.008134690248563172, 0.43867646998538135, -1.5417961716751563, 9362.0, 34078.0, 35388.0, 9362.0, 7.636364459991455, 0.003542589023709297, -0.16755343973636627, -0.32630082964897156
390309, 0.009759336709976196, -0.08549197018146515, -0.01286580041050911, 0.0018712712917476892, -5.174434409127571e-05, 0.0028033386915922165, 0.006318449974060059, -0.0004635828372556716, 0.005392570048570633, -0.1043786108493805, -2.214376211166382, 0.06959042698144913, 0.006744279870821476, 0.436123562239942, -1.542188371922032, 9362.0, 34078.0, 35388.0, 9362.0, 7.616529941558838, 0.009838913567364216, 0.08574361354112625, 0.00040879868902266026
390319, 0.009250362403690815, -0.08646899461746216, -0.012961656786501408, 0.0019351807422935963, -5.6464821682311594e-05, 0.0028574499301612377, 0.006463437341153622, -0.00048051425255835056, 0.005430036690086126, -0.10437412559986115, -2.214359760284424, 0.06960943341255188, 0.006652217558932806, 0.4391987492573719, -1.5453285568759967, 9362.0, 34078.0, 35388.0, 9362.0, 7.616529941558838, -0.16054478287696838, 0.5286247134208679, 0.4010748863220215
390329, 0.008219534531235695, -0.09178346395492554, -0.010278763249516487, 0.0020005465485155582, -6.135363219073042e-05, 0.0029114894568920135, 0.00660973135381937, -0.0004972484894096851, 0.00537826819345355, -0.10437662899494171, -2.2143595218658447, 0.06961274892091751, 0.008797341581974037, 0.4373891273680215, -1.5494200631662767, 9362.0, 34078.0, 35388.0, 9362.0, 7.616529941558838, -0.16483409702777863, 0.011218596249818802, -0.17248931527137756
390339, 0.007393438369035721, -0.09205275028944016, -0.011052622459828854, 0.002067382913082838, -6.640535866608843e-05, 0.002964559942483902, 0.006757550407201052, -0.0005130927893333137, 0.005236187484115362, -0.10438001900911331, -2.2143759727478027, 0.06957407295703888, 0.00290997355880736, 0.4389371058130678, -1.5445205924994412, 9362.0, 34078.0, 35388.0, 9362.0, 7.616529941558838, -0.11142357438802719, 0.11674720048904419, 0.011819551698863506
390349, 0.007077315356582403, -0.09369571506977081, -0.010971948504447937, 0.0021357443183660507, -7.16068025212735e-05, 0.0030170062091201544, 0.006914724595844746, -0.0005271984846331179, 0.005253454204648733, -0.10431822389364243, -2.2143619060516357, 0.06947185844182968, -0.02124764113192611, 0.48959893385028863, -1.588950219212395, 9362.0, 34078.0, 35388.0, 9362.0, 7.616529941558838, -0.10881667584180832, 0.1462719440460205, -0.07765880227088928
390359, 0.007542796432971954, -0.09514742344617844, -0.01102096401154995, 0.002205680590122938, -7.694232044741511e-05, 0.003070203587412834, 0.007072549778968096, -0.0005399039364419878, 0.005386444739997387, -0.10431496798992157, -2.2143380641937256, 0.0696367472410202, 0.006773203296066732, 0.40397887722036785, -1.5515599486893332, 9362.0, 34078.0, 35388.0, 9362.0, 7.636364459991455, 0.06380543112754822, -0.14556235074996948, -0.20512016117572784
390369, 0.007104359567165375, -0.09450951218605042, -0.010561390779912472, 0.0022772096563130617, -8.24022208689712e-05, 0.0031250116880983114, 0.007233283016830683, -0.0005520773120224476, 0.005575560498982668, -0.10430620610713959, -2.2143468856811523, 0.06961829960346222, 0.0070055871105142355, 0.4044608554177671, -1.5502268218469752, 9362.0, 34078.0, 35388.0, 9362.0, 7.616529941558838, 0.11617999523878098, -0.28719428181648254, -0.1291477531194687
390379, 0.008556748740375042, -0.09224602580070496, -0.01235118042677641, 0.002350358059629798, -8.79878134583123e-05, 0.0031814295798540115, 0.007396409288048744, -0.0005650383536703885, 0.005708437412977219, -0.10434919595718384, -2.2143545150756836, 0.06958173960447311, 0.004279649664151904, 0.4378464572877476, -1.5493194790835172, 9362.0, 34078.0, 35388.0, 9362.0, 7.616529941558838, -0.20907951891422272, 0.04234033823013306, -0.07302682101726532
390389, 0.008151937276124954, -0.09345311671495438, -0.012630121782422066, 0.0024251306895166636, -9.369912731926888e-05, 0.003238177392631769, 0.007558114361017942, -0.0005772271542809904, 0.005641511175781488, -0.10439543426036835, -2.2143735885620117, 0.06960579752922058, 0.004618613357839942, 0.4311789394326979, -1.5381324540379737, 9362.0, 34078.0, 35388.0, 9362.0, 7.616529941558838, 0.06508693099021912, 0.18643197417259216, 0.04010246694087982
390399, 0.008459518663585186, -0.09531773626804352, -0.012384866364300251, 0.0025015014689415693, -9.95448135654442e-05, 0.0032945331186056137, 0.007716033142060041, -0.0005919107934460044, 0.005630012601613998, -0.10430337488651276, -2.214344024658203, 0.06959216296672821, 0.013272918384497519, 0.408424388935714, -1.5481791705156307, 9362.0, 34078.0, 35388.0, 9362.0, 7.616529941558838, 0.22166936099529266, -0.1411990523338318, -0.0651489794254303
390409, 0.01078130304813385, -0.09465530514717102, -0.012997782789170742, 0.0025794634129852057, -0.0001055340253515169, 0.003351836930960417, 0.007876371033489704, -0.0006059325532987714, 0.0058311219327151775, -0.10431260615587234, -2.214345932006836, 0.06960777193307877, 0.008770291693610701, 0.4067010767897443, -1.5463755455120294, 9362.0, 34078.0, 35388.0, 9362.0, 7.616529941558838, -0.17638200521469116, 0.13611716032028198, -0.153326153755188
390419, 0.010177197866141796, -0.09557430446147919, -0.01387976948171854, 0.002659045159816742, -0.00011166613694513217, 0.0034114031586796045, 0.008039983920753002, -0.0006205011159181595, 0.006082519888877869, -0.10438799113035202, -2.2143642902374268, 0.06959477812051773, 0.007278907849820442, 0.4326754717496897, -1.550083309592702, 9362.0, 34078.0, 35388.0, 9362.0, 7.616529941558838, 0.023718733340501785, 0.05365034192800522, 0.05301642045378685
390429, 0.009691854007542133, -0.09600379317998886, -0.014699818566441536, 0.002740256953984499, -0.00011796381295425817, 0.003473206888884306, 0.008202371187508106, -0.0006390346097759902, 0.006278624292463064, -0.10435062646865845, -2.2143681049346924, 0.06962177157402039, 0.004641659042423936, 0.3968634275635452, -1.5527038275757048, 9362.0, 34078.0, 35388.0, 9362.0, 7.616529941558838, 0.023718733340501785, 0.05365034192800522, 0.05301642045378685
390439, 0.009481322020292282, -0.09597023576498032, -0.01514618843793869, 0.002823099959641695, -0.0001244416052941233, 0.003536664182320237, 0.008366230875253677, -0.0006565244402736425, 0.0064132316038012505, -0.10438093543052673, -2.214364528656006, 0.06960852444171906, 0.004652950979101978, 0.437755776406334, -1.5450501958074492, 9362.0, 34078.0, 35388.0, 9362.0, 7.616529941558838, -0.18172121047973633, 0.2762543857097626, 0.1876382827758789
390449, 0.008771712891757488, -0.09764663875102997, -0.01507489662617445, 0.0029075839556753635, -0.0001310900115640834, 0.0036006849259138107, 0.008530563674867153, -0.0006731583271175623, 0.006391308270394802, -0.10430742055177689, -2.2143468856811523, 0.06961341202259064, 0.009569752637811032, 0.4016494403749391, -1.5489118869036027, 9362.0, 34078.0, 35388.0, 9362.0, 7.616529941558838, -0.18172121047973633, 0.2762543857097626, 0.1876382827758789
390459, 0.009520323947072029, -0.09833281487226486, -0.01484403945505619, 0.0029937110375612974, -0.00013790295633953065, 0.0036644600331783295, 0.008694831281900406, -0.0006894309190101922, 0.006364135071635246, -0.10435010492801666, -2.214369058609009, 0.06962038576602936, 0.003661579952850249, 0.39365562188990566, -1.5556095144806663, 9362.0, 34078.0, 35388.0, 9362.0, 7.616529941558838, -0.18172121047973633, 0.2762543857097626, 0.1876382827758789
390469, 0.010268372483551502, -0.09976191073656082, -0.017204169183969498, 0.0030814949423074722, -0.00014487253793049604, 0.003727871458977461, 0.008861936628818512, -0.0007044852245599031, 0.006318515166640282, -0.1043778583407402, -2.2143685817718506, 0.06962133198976517, 0.002952472302573262, 0.43216636530695496, -1.5496331393215879, 9362.0, 34078.0, 35388.0, 9362.0, 7.616529941558838, 0.019684238359332085, -0.21023766696453094, 0.0644647553563118
390479, 0.01042147260159254, -0.09900829195976257, -0.017981141805648804, 0.0030814949423074722, -0.00014487253793049604, 0.003727871458977461, 0.008861936628818512, -0.0007044852245599031, 0.006318515166640282, -0.10435675829648972, -2.2143478393554688, 0.06958673894405365, 0.002843943653243205, 0.4418019586222499, -1.5567757187770987, 9362.0, 34078.0, 35388.0, 9362.0, 7.616529941558838, 0.019684238359332085, -0.21023766696453094, 0.0644647553563118
390489, 0.010560152120888233, -0.10194975137710571, -0.01822039671242237, 0.003262119833379984, -0.0001592963089933619, 0.0038580815307796, 0.00920166727155447, -0.0007385302451439202, 0.006646611262112856, -0.1043771505355835, -2.2143712043762207, 0.06960751861333847, 0.008461452286909962, 0.4336900746758374, -1.5453710542678527, 9362.0, 34078.0, 35388.0, 9362.0, 7.616529941558838, 0.019684238359332085, -0.21023766696453094, 0.0644647553563118
390499, 0.009936749003827572, -0.10537552833557129, -0.01829053834080696, 0.003354984102770686, -0.00016677110397722572, 0.003924570977687836, 0.009371189400553703, -0.0007564283441752195, 0.006651624105870724, -0.10432720929384232, -2.2143595218658447, 0.06956367939710617, 0.004760139838271464, 0.43686401186388935, -1.5493987856360274, 9362.0, 34078.0, 35388.0, 9362.0, 7.616529941558838, 0.019684238359332085, -0.21023766696453094, 0.0644647553563118
390509, 0.011151301674544811, -0.11079153418540955, -0.015324597246944904, 0.003449569456279278, -0.00017442612443119287, 0.003991425968706608, 0.00954586360603571, -0.0007745765615254641, 0.006719785742461681, -0.10430604964494705, -2.214341163635254, 0.06960929185152054, 0.0045230899586107395, 0.40428744611020306, -1.5529832478622714, 9362.0, 34078.0, 35388.0, 9362.0, 7.616529941558838, 0.019684238359332085, -0.21023766696453094, 0.0644647553563118
390519, 0.011976474896073341, -0.11154765635728836, -0.01579907536506653, 0.003545930841937661, -0.00018225732492282987, 0.004059042315930128, 0.009726440533995628, -0.0007916546310298145, 0.006803868804126978, -0.10443200170993805, -2.2143499851226807, 0.06953193992376328, -0.011950755413184749, 0.40016702335205423, -1.514378483080057, 9362.0, 34078.0, 35388.0, 9362.0, 7.616529941558838, -0.1863439530134201, -0.2760586440563202, -0.15708136558532715
390529, 0.01153802964836359, -0.10905575007200241, -0.016817037016153336, 0.003545930841937661, -0.00018225732492282987, 0.004059042315930128, 0.009726440533995628, -0.0007916546310298145, 0.006803868804126978, -0.10437049716711044, -2.2143681049346924, 0.06960909813642502, 0.00469016802445932, 0.43856348896682107, -1.5502129587765927, 9362.0, 34078.0, 35388.0, 9362.0, 7.616529941558838, -0.1863439530134201, -0.2760586440563202, -0.15708136558532715
390539, 0.012256254442036152, -0.11093273758888245, -0.01851438358426094, 0.0037442625034600496, -0.0001984806585824117, 0.004196473862975836, 0.010107280686497688, -0.0008313797879964113, 0.006890533957630396, -0.10435093939304352, -2.2143454551696777, 0.06958380341529846, 0.004816580607416197, 0.43330443554168596, -1.5564319964030846, 9362.0, 34078.0, 35388.0, 9362.0, 7.616529941558838, 0.07810104638338089, 0.5171291828155518, -0.1129896342754364
390549, 0.012090301141142845, -0.11555932462215424, -0.018985455855727196, 0.0038462691009044647, -0.00020689351367764175, 0.004265456460416317, 0.010294025763869286, -0.0008511985070072114, 0.00690634036436677, -0.10434362292289734, -2.2143421173095703, 0.06957424432039261, 0.007357127929943319, 0.4343200944505554, -1.5407317040775836, 9362.0, 34078.0, 35388.0, 9362.0, 7.636364459991455, 0.12813487648963928, 0.24881573021411896, 0.1921849548816681
390559, 0.01312317419797182, -0.11933395266532898, -0.017644628882408142, 0.003950159996747971, -0.0002155108522856608, 0.0043350933119654655, 0.010484186001121998, -0.0008722705533728004, 0.007021421100944281, -0.10426688194274902, -2.2143521308898926, 0.06950760632753372, -0.028091275734161883, 0.44837600748613227, -1.5958656469686237, 9362.0, 34078.0, 35388.0, 9362.0, 7.616529941558838, 0.15015935897827148, -0.15124426782131195, -0.17545154690742493
390569, 0.013774451799690723, -0.11933555454015732, -0.019127659499645233, 0.004055992234498262, -0.00022433750564232469, 0.004405896179378033, 0.010682282038033009, -0.0008930591866374016, 0.007139517925679684, -0.10438723117113113, -2.2143678665161133, 0.06961546838283539, 0.0021413410176651386, 0.42695476764652085, -1.5418933752613282, 9362.0, 34078.0, 35388.0, 9362.0, 7.616529941558838, 0.15015935897827148, -0.15124426782131195, -0.17545154690742493
390579, 0.014920469373464584, -0.11975465714931488, -0.019813494756817818, 0.004163837525993586, -0.00023338083701673895, 0.004477636888623238, 0.010886739939451218, -0.0009156131418421865, 0.00720902718603611, -0.10436665266752243, -2.2143640518188477, 0.06959673762321472, 0.0008853594155012917, 0.43396824392868893, -1.5488959598615257, 9362.0, 34078.0, 35388.0, 9362.0, 7.616529941558838, -0.15056964755058289, -0.25606563687324524, -0.11068572103977203
390589, 0.01389813981950283, -0.11805055290460587, -0.019849978387355804, 0.004273726139217615, -0.000242655209149234, 0.004549622070044279, 0.01109100878238678, -0.0009392625652253628, 0.007188363932073116, -0.10432835668325424, -2.2143490314483643, 0.06958316266536713, 0.003763391129772447, 0.442081961782435, -1.5416697691831722, 9362.0, 34078.0, 35388.0, 9362.0, 7.616529941558838, 0.31272032856941223, 0.06187855079770088, -0.17560924589633942
390599, 0.01426842249929905, -0.11864490061998367, -0.021134112030267715, 0.004273726139217615, -0.000242655209149234, 0.004549622070044279, 0.01109100878238678, -0.0009392625652253628, 0.007188363932073116, -0.10437074303627014, -2.2143731117248535, 0.06960883736610413, 0.0034795684700994135, 0.4258734721507267, -1.5495554204994524, 9362.0, 34078.0, 35388.0, 9362.0, 7.616529941558838, 0.31272032856941223, 0.06187855079770088, -0.17560924589633942
390619, 0.014220182783901691, -0.12440390139818192, -0.020566916093230247, 0.004615620709955692, -0.00027195303118787706, 0.004760989919304848, 0.01170117687433958, -0.001013237633742392, 0.0071309031918644905, -0.10431225597858429, -2.2143521308898926, 0.06959474086761475, 0.006706830410619593, 0.4034395547464271, -1.5503812964211532, 9362.0, 34078.0, 35388.0, 9362.0, 7.616529941558838, -0.12545141577720642, 0.020791657269001007, 0.2692650556564331
390629, 0.01354687288403511, -0.1257772296667099, -0.018631115555763245, 0.004733680281788111, -0.0002822073583956808, 0.0048328544944524765, 0.011910747736692429, -0.0010376278078183532, 0.007242358755320311, -0.1043831929564476, -2.214365005493164, 0.06960569322109222, -0.000749424924364073, 0.43100938713135406, -1.5502156296045608, 9362.0, 34078.0, 35388.0, 9362.0, 7.616529941558838, -0.12545141577720642, 0.020791657269001007, 0.2692650556564331
390639, 0.013116099871695042, -0.12842193245887756, -0.017788967117667198, 0.004853853490203619, -0.0002927058667410165, 0.004905675537884235, 0.012123916298151016, -0.0010620633838698268, 0.007322223857045174, -0.10438372939825058, -2.214378833770752, 0.0695914551615715, 0.0006719658653970166, 0.4346353970455539, -1.548301200380728, 9362.0, 34078.0, 35388.0, 9362.0, 7.616529941558838, 0.15286654233932495, -0.09681029617786407, -0.25732186436653137
390649, 0.014095326885581017, -0.12777742743492126, -0.019109293818473816, 0.004976170603185892, -0.00030344296828843653, 0.0049794758670032024, 0.012339521199464798, -0.0010853513376787305, 0.007438241969794035, -0.10437319427728653, -2.2143683433532715, 0.06957681477069855, 0.012138047162801055, 0.43355373696840616, -1.548169922517202, 9362.0, 34078.0, 35388.0, 9362.0, 7.616529941558838, 0.012163541279733181, -0.018767589703202248, -0.022675946354866028
390659, 0.015045728534460068, -0.1267084926366806, -0.019069820642471313, 0.005100667476654053, -0.00031440932070836425, 0.005054792854934931, 0.01255981158465147, -0.001107927761040628, 0.007625538855791092, -0.10434577614068985, -2.21435284614563, 0.06958284974098206, 0.009407825604516818, 0.43343673857430076, -1.5517587577039893, 9362.0, 34078.0, 35388.0, 9362.0, 7.616529941558838, -0.24669189751148224, 0.031344108283519745, 0.1421215534210205
390669, 0.014708920381963253, -0.12722796201705933, -0.016396818682551384, 0.005227361805737019, -0.00032560990075580776, 0.005132182035595179, 0.012779082171618938, -0.0011321939527988434, 0.007852637208998203, -0.10438238829374313, -2.2143657207489014, 0.06960339099168777, 0.0025452689547215625, 0.4312545667915799, -1.5444486015943393, 9362.0, 34078.0, 35388.0, 9362.0, 7.616529941558838, -0.15378715097904205, 0.17884433269500732, -0.053605906665325165
390679, 0.015207577496767044, -0.13015273213386536, -0.01635034941136837, 0.005356237757951021, -0.00033706106478348374, 0.005210920237004757, 0.01299611572176218, -0.0011580277932807803, 0.007895412854850292, -0.10434272885322571, -2.2143490314483643, 0.0695779025554657, 0.009341870847979217, 0.43528068840257106, -1.5497832351530207, 9362.0, 34078.0, 35388.0, 9362.0, 7.616529941558838, -0.15378715097904205, 0.17884433269500732, -0.053605906665325165
390689, 0.01508720126003027, -0.1339178830385208, -0.01635967195034027, 0.005487287417054176, -0.00034876749850809574, 0.005289577413350344, 0.013213809579610825, -0.00118325836956501, 0.007836359553039074, -0.10437020659446716, -2.2143630981445312, 0.06959719210863113, 0.0034252811400007953, 0.4362288141703061, -1.5358303317159778, 9362.0, 34078.0, 35388.0, 9362.0, 7.616529941558838, 0.09210720658302307, 0.09154012054204941, 0.1753855049610138
390699, 0.016371726989746094, -0.13556264340877533, -0.016513286158442497, 0.005620538257062435, -0.0003607303951866925, 0.005367215722799301, 0.01343630813062191, -0.0012093218974769115, 0.0076917060650885105, -0.10434717684984207, -2.214376211166382, 0.06962279975414276, 0.0011363080307813598, 0.40009217314010925, -1.5454518615991792, 9362.0, 34078.0, 35388.0, 9362.0, 7.636364459991455, -0.10022415965795517, 0.40782031416893005, 0.11404933780431747
390709, 0.015837520360946655, -0.1375666707754135, -0.015693599358201027, 0.005756049416959286, -0.00037295330548658967, 0.005444932263344526, 0.013665970414876938, -0.001235265634022653, 0.007851947098970413, -0.1043395921587944, -2.2143476009368896, 0.0695718452334404, 0.006137022547315981, 0.43652810254047836, -1.5432249990884472, 9362.0, 34078.0, 35388.0, 9362.0, 7.616529941558838, 0.19837479293346405, 0.1462733894586563, 0.09105658531188965
390719, 0.017101969569921494, -0.1381964087486267, -0.01634225808084011, 0.005893871188163757, -0.00038544664857909083, 0.005524151958525181, 0.013898404315114021, -0.0012633990263566375, 0.007992320694029331, -0.10434085875749588, -2.2143590450286865, 0.06961354613304138, 0.005362970565659279, 0.3937192341639957, -1.55177632141524, 9362.0, 34078.0, 35388.0, 9362.0, 7.616529941558838, -0.0939776673913002, -0.0791814997792244, -0.19988571107387543
390729, 0.01760024018585682, -0.13906370103359222, -0.016546644270420074, 0.006034034304320812, -0.00039821668178774416, 0.00560457119718194, 0.014134175144135952, -0.0012906126212328672, 0.008091902360320091, -0.10437842458486557, -2.2143714427948, 0.06958553940057755, 0.006479317844791254, 0.4300553365892483, -1.5412468980751544, 9362.0, 34078.0, 35388.0, 9362.0, 7.636364459991455, 0.09583223611116409, 0.2604947090148926, 0.022774655371904373
390739, 0.01814332976937294, -0.14227725565433502, -0.016577918082475662, 0.006176559720188379, -0.00041126960422843695, 0.0056856609880924225, 0.014370866119861603, -0.0013199730310589075, 0.008126468397676945, -0.10437384247779846, -2.2143797874450684, 0.06959420442581177, 0.00607412585466201, 0.43656023455304194, -1.5415220530537435, 9362.0, 34078.0, 35388.0, 9362.0, 7.616529941558838, -0.015090947970747948, -0.1488007754087448, -0.19674639403820038
390749, 0.017976226285099983, -0.14053396880626678, -0.018333440646529198, 0.006321459077298641, -0.00042462037527002394, 0.005767032504081726, 0.014609010890126228, -0.0013501833891496062, 0.008148175664246082, -0.10426032543182373, -2.2143337726593018, 0.06946545839309692, -0.017265019294274066, 0.4940801596364395, -1.5835192787248793, 9362.0, 34078.0, 35388.0, 9362.0, 7.616529941558838, -0.25519782304763794, -0.19403253495693207, -0.15790216624736786
390759, 0.017428239807486534, -0.13854876160621643, -0.018061567097902298, 0.006468767765909433, -0.0004382779588922858, 0.005848729517310858, 0.01485271193087101, -0.001381339505314827, 0.008191653527319431, -0.10434575378894806, -2.214367151260376, 0.06959603726863861, 0.001783578591487266, 0.39889744627492973, -1.5534196761923909, 9362.0, 34078.0, 35388.0, 9362.0, 7.616529941558838, -0.25519782304763794, -0.19403253495693207, -0.15790216624736786
