timeTick, roll, pitch, yaw, stateX, stateY, stateZ, stateVX, stateVY, stateVZ, otX0, otY0, otZ0, otRoll0, otPitch0, otYaw0, motor1, motor2, motor3, motor4, voltage
389234, -0.5982918739318848, -0.1492740958929062, -9.29442310333252, 0, 0, 0, 0, 0, 0, 0.025595471262931824, -1.6816377639770508, 0.06514044106006622, 1.553221628881596, 0.20797525184295296, 92.01015742373838, 0, 0, 0, 0, 0
389244, -0.5982630252838135, -0.15009599924087524, -9.294196128845215, 0.0, 0.0, -220.81735229492188, 0.0, 0.0, -0.03509521484375, 0.025597242638468742, -1.6816315650939941, 0.06515185534954071, 1.5511439163498018, 0.20505338315348354, 92.01271247516144, 9362.0, 34078.0, 35388.0, 9362.0, 8.271075248718262
389254, -0.5984296202659607, -0.15138235688209534, -9.292588233947754, 0.0, 0.0, -220.8175048828125, 0.0, 0.0, -0.0152587890625, 0.02559220977127552, -1.6816167831420898, 0.06516655534505844, 1.5601410143384697, 0.20380848716351352, 92.01536592533795, 9362.0, 34078.0, 35388.0, 9362.0, 8.271075248718262
389264, -0.597774863243103, -0.15115858614444733, -9.292820930480957, 0.0, 0.0, -220.81765747070312, 0.0, 0.0, -0.0152587890625, 0.025589719414711, -1.6816344261169434, 0.06514851003885269, 1.5553234247404126, 0.2023845167182401, 92.02133188177208, 9362.0, 34078.0, 35388.0, 9362.0, 8.271075248718262
389274, -0.5975410342216492, -0.14989154040813446, -9.295557022094727, 0.0, 0.0, -220.8177947998047, 0.0, 0.0, -0.01373291015625, 0.0255974680185318, -1.6816291809082031, 0.06515150517225266, 1.5610192039671307, 0.20767739863316592, 92.0158021405657, 9362.0, 34078.0, 35388.0, 9362.0, 8.271075248718262
389284, -0.5979956984519958, -0.14993517100811005, -9.296538352966309, 0.0, 0.0, -220.81793212890625, 0.0, 0.0, -0.01373291015625, 0.025596510618925095, -1.6816247701644897, 0.06516847014427185, 1.5527361366979355, 0.20471843007717894, 92.01837285350332, 9362.0, 34078.0, 35388.0, 9362.0, 8.271075248718262
389294, -0.5982555150985718, -0.14885571599006653, -9.297507286071777, 0.0, 0.0, -220.8181915283203, 0.0, 0.0, -0.02593994140625, 0.02558673545718193, -1.681627631187439, 0.06515565514564514, 1.5570728070112212, 0.20972708958066733, 92.01713100859841, 9362.0, 34078.0, 35388.0, 9362.0, 8.271075248718262
389304, -0.5980342626571655, -0.14674445986747742, -9.299586296081543, 0.0, 0.0, -220.81845092773438, 0.0, 0.0, -0.02593994140625, 0.02554571069777012, -1.6816205978393555, 0.0651361495256424, 1.567336568307475, 0.20792012690912998, 92.03840286851495, 9362.0, 34078.0, 35388.0, 9362.0, 8.271075248718262
389314, -0.5983602404594421, -0.14617548882961273, -9.29990291595459, 0.0, 0.0, -220.81857299804688, 0.0, 0.0, -0.01220703125, 0.025597896426916122, -1.6816169023513794, 0.06517329066991806, 1.5594886233397662, 0.20783350984405047, 92.02099435027566, 9362.0, 34078.0, 35388.0, 9362.0, 8.271075248718262
389324, -0.5978062748908997, -0.148101806640625, -9.301200866699219, 0.0, 0.0, -220.81869506835938, 0.0, 0.0, -0.01220703125, 0.025553204119205475, -1.6816240549087524, 0.06516634672880173, 1.5735297756985704, 0.2034802238639486, 92.04199688681992, 9362.0, 34078.0, 35388.0, 9362.0, 8.271075248718262
389334, -0.5981582403182983, -0.14875970780849457, -9.301582336425781, 0.0, 0.0, -220.8187713623047, 0.0, 0.0, -0.00762939453125, 0.025585073977708817, -1.6816385984420776, 0.06513849645853043, 1.5602570095333634, 0.206808405051504, 92.0154891650003, 9362.0, 34078.0, 35388.0, 9362.0, 8.271075248718262
389344, -0.595670223236084, -0.1475057452917099, -9.301762580871582, 0.0, 0.0, -220.81884765625, 0.0, 0.0, -0.00762939453125, 0.02559271827340126, -1.6816229820251465, 0.06516440212726593, 1.55371660198703, 0.21184058489276936, 92.0105538747435, 9362.0, 34078.0, 35388.0, 9362.0, 8.271075248718262
389354, -0.5952306389808655, -0.14554597437381744, -9.304564476013184, 0.0, 0.0, -220.81883239746094, 0.0, 0.0, 0.00152587890625, 0.025588959455490112, -1.6816256046295166, 0.06517229974269867, 1.5530971515367022, 0.2072399277948307, 92.02109874307732, 9362.0, 34078.0, 35388.0, 9362.0, 8.271075248718262
389364, -0.5950636863708496, -0.1443725973367691, -9.306260108947754, 0.0, 0.0, -220.81881713867188, 0.0, 0.0, 0.00152587890625, 0.02558887004852295, -1.6816450357437134, 0.06515130400657654, 1.5564461895745691, 0.20330795864046536, 92.0165205852953, 9362.0, 34078.0, 35388.0, 9362.0, 8.271075248718262
389374, -0.5963903069496155, -0.14342087507247925, -9.306605339050293, 0.0, 0.0, -220.81846618652344, 0.0, 0.0, 0.03509521484375, 0.025595519691705704, -1.6816229820251465, 0.06516747176647186, 1.5582316328892152, 0.20827553834709533, 92.0196112840416, 9362.0, 34078.0, 35388.0, 9362.0, 8.271075248718262
389384, -0.5968098044395447, -0.14546553790569305, -9.305532455444336, 0.0, 0.0, -220.818115234375, 0.0, 0.0, 0.03509521484375, 0.02555491402745247, -1.6816273927688599, 0.06516306847333908, 1.5640855556197906, 0.20747704758107943, 92.04695536519307, 9362.0, 34078.0, 35388.0, 9362.0, 8.271075248718262
389394, -0.5958805084228516, -0.14365309476852417, -9.307284355163574, 0.0, 0.0, -220.8179473876953, 0.0, 0.0, 0.01678466796875, 0.025595344603061676, -1.6816272735595703, 0.0651664212346077, 1.559166255523713, 0.20779485040100099, 92.0231042735452, 9362.0, 34078.0, 35388.0, 9362.0, 8.271075248718262
389404, -0.5972411632537842, -0.14280949532985687, -9.306295394897461, 0.0, 0.0, -220.81777954101562, 0.0, 0.0, 0.01678466796875, 0.02553717792034149, -1.68163001537323, 0.06515548378229141, 1.5584646971058875, 0.21825509615493388, 92.03662216177113, 9362.0, 34078.0, 35388.0, 9362.0, 8.271075248718262
389414, -0.5978594422340393, -0.14473481476306915, -9.304388999938965, 0.0, 0.0, -220.8176727294922, 0.0, 0.0, 0.01068115234375, 0.02559577487409115, -1.681635856628418, 0.06517431885004044, 1.5596014406652665, 0.20394326271409113, 92.01996081563676, 9362.0, 34078.0, 35388.0, 9362.0, 8.271075248718262
389424, -0.5981566905975342, -0.14564688503742218, -9.301729202270508, 0.0, 0.0, -220.81756591796875, 0.0, 0.0, 0.01068115234375, 0.02559611015021801, -1.681641697883606, 0.06515012681484222, 1.558457819733725, 0.2049107248712403, 92.01619874798878, 9362.0, 34078.0, 35388.0, 9362.0, 8.271075248718262
389434, -0.5982230305671692, -0.1492835432291031, -9.299565315246582, 0.0, 0.0, -220.81747436523438, 0.0, 0.0, 0.0091552734375, 0.025586988776922226, -1.6816306114196777, 0.06515699625015259, 1.561307256989731, 0.20926605761292194, 92.01753459033249, 9362.0, 34078.0, 35388.0, 9362.0, 8.271075248718262
389444, -0.5974350571632385, -0.1502998322248459, -9.298402786254883, 0.0, 0.0, -220.8173828125, 0.0, 0.0, 0.0091552734375, 0.025580760091543198, -1.6816397905349731, 0.06516069173812866, 1.5609488210998905, 0.21309472794598605, 92.01739291728275, 9362.0, 34078.0, 35388.0, 9362.0, 8.271075248718262
389454, -0.5967646837234497, -0.1476529836654663, -9.299287796020508, 0.0, 0.0, -220.81736755371094, 0.0, 0.0, 0.00152587890625, 0.025590956211090088, -1.6816316843032837, 0.06516100466251373, 1.5569722798243175, 0.20607597206986839, 92.0159169079331, 9362.0, 34078.0, 35388.0, 9362.0, 8.271075248718262
389464, -0.597385823726654, -0.14730101823806763, -9.298169136047363, 0.0, 0.0, -220.81735229492188, 0.0, 0.0, 0.00152587890625, 0.02559278905391693, -1.6816413402557373, 0.06515111029148102, 1.5585889058443192, 0.20858540325838248, 92.01849064787044, 9362.0, 34078.0, 35388.0, 9362.0, 8.271075248718262
389474, -0.5971344113349915, -0.15067146718502045, -9.298725128173828, 0.0, 0.0, -220.8173828125, 0.0, 0.0, -0.0030517578125, 0.02558620646595955, -1.6816422939300537, 0.06514549255371094, 1.5614716477331747, 0.2028408300414526, 92.02019584507723, 9362.0, 34078.0, 35388.0, 9362.0, 8.271075248718262
389484, -0.5975388288497925, -0.15040190517902374, -9.29611873626709, 0.0, 0.0, -220.81741333007812, 0.0, 0.0, -0.0030517578125, 0.025543760508298874, -1.6816396713256836, 0.06514708697795868, 1.5620337418699382, 0.19950295316348843, 92.04350387536611, 9362.0, 34078.0, 35388.0, 9362.0, 8.271075248718262
389494, -0.5967729687690735, -0.14983560144901276, -9.295973777770996, 0.0, 0.0, -220.8177490234375, 0.0, 0.0, -0.0335693359375, 0.025583546608686447, -1.6816326379776, 0.0651421919465065, 1.5529199435212402, 0.2097627144210037, 92.01966888689878, 9362.0, 34078.0, 35388.0, 9362.0, 8.271075248718262
389504, -0.5977348685264587, -0.14998887479305267, -9.296551704406738, 0.0, 0.0, -220.81808471679688, 0.0, 0.0, -0.0335693359375, 0.025631524622440338, -1.6816591024398804, 0.06515499204397202, 1.5400397008861864, 0.2079356783028743, 91.98615910815762, 9362.0, 34078.0, 35388.0, 9362.0, 8.271075248718262
389514, -0.5976672768592834, -0.15259496867656708, -9.29716968536377, 0.0, 0.0, -220.81826782226562, 0.0, 0.0, -0.018310546875, 0.02558908984065056, -1.6816431283950806, 0.06514113396406174, 1.5589850658531466, 0.20346421794181424, 92.01873077268202, 9362.0, 34078.0, 35388.0, 9362.0, 8.271075248718262
389524, -0.5983669757843018, -0.1530202478170395, -9.295939445495605, 0.0, 0.0, -220.81845092773438, 0.0, 0.0, -0.018310546875, 0.02559322491288185, -1.6816353797912598, 0.06514383107423782, 1.5570567439962397, 0.20516252404559054, 92.01895783447188, 9362.0, 34078.0, 35388.0, 9362.0, 8.271075248718262
389534, -0.5990960001945496, -0.15062043070793152, -9.298967361450195, 0.0, 0.0, -220.8184356689453, 0.0, 0.0, 0.00152587890625, 0.025578269734978676, -1.6816494464874268, 0.06515195965766907, 1.556131194613928, 0.20557747211282162, 92.01221287597755, 9362.0, 34078.0, 35388.0, 9362.0, 8.271075248718262
389544, -0.6000573635101318, -0.1523614376783371, -9.298198699951172, 0.0, 0.0, -220.81842041015625, 0.0, 0.0, 0.00152587890625, 0.025631068274378777, -1.6816494464874268, 0.06519586592912674, 1.5382694062331932, 0.21163188018087453, 91.99233560397049, 9362.0, 34078.0, 35388.0, 9362.0, 8.271075248718262
389554, -0.6004528403282166, -0.15577071905136108, -9.298133850097656, 0.0, 0.0, -220.81869506835938, 0.0, 0.0, -0.0274658203125, 0.02559313178062439, -1.6816341876983643, 0.0651659294962883, 1.5609031008190848, 0.2082068491189375, 92.01503610170532, 9362.0, 34078.0, 35388.0, 9362.0, 8.271075248718262
389564, -0.6002199053764343, -0.15335731208324432, -9.297943115234375, 0.0, 0.0, -220.8189697265625, 0.0, 0.0, -0.0274658203125, 0.025586998090147972, -1.6816421747207642, 0.0651538223028183, 1.5582800615475985, 0.20823839982125492, 92.0155723156128, 9362.0, 34078.0, 35388.0, 9362.0, 8.271075248718262
389574, -0.6012740731239319, -0.15445291996002197, -9.295989036560059, 0.0, 0.0, -220.8192901611328, 0.0, 0.0, -0.03204345703125, 0.02559458091855049, -1.6816368103027344, 0.06514370441436768, 1.5645816213326624, 0.20826180145812145, 92.01574015600121, 9362.0, 34078.0, 35388.0, 9362.0, 8.271075248718262
389584, -0.6008285284042358, -0.15516209602355957, -9.295771598815918, 0.0, 0.0, -220.81961059570312, 0.0, 0.0, -0.03204345703125, 0.025641337037086487, -1.681652545928955, 0.06516946107149124, 1.5484295345424897, 0.21046095130560616, 91.9921041719429, 9362.0, 34078.0, 35388.0, 9362.0, 8.271075248718262
389594, -0.6011185050010681, -0.15362867712974548, -9.296723365783691, 0.0, 0.0, -220.81980895996094, 0.0, 0.0, -0.01983642578125, 0.025632474571466446, -1.6816564798355103, 0.06514999270439148, 1.5452846234543414, 0.2113328048781682, 91.9856215118887, 9362.0, 34078.0, 35388.0, 9362.0, 8.271075248718262
389604, -0.6013318300247192, -0.15172745287418365, -9.29880428314209, 0.0, 0.0, -220.82000732421875, 0.0, 0.0, -0.01983642578125, 0.02559402585029602, -1.6816356182098389, 0.06513593345880508, 1.5608302723352774, 0.20494231820202913, 92.02279816034677, 9362.0, 34078.0, 35388.0, 9362.0, 8.271075248718262
389614, -0.6024273037910461, -0.15126948058605194, -9.298940658569336, 0.0, 0.0, -220.8199462890625, 0.0, 0.0, 0.006103515625, 0.025558391585946083, -1.6816377639770508, 0.06514236330986023, 1.5617531883370122, 0.20125692901513048, 92.04118919322578, 9362.0, 34078.0, 35388.0, 9362.0, 8.271075248718262
389624, -0.601992130279541, -0.1483839601278305, -9.298493385314941, 0.0, 0.0, -220.81988525390625, 0.0, 0.0, 0.006103515625, 0.02556246891617775, -1.681634783744812, 0.06515873223543167, 1.5641540093448856, 0.2084862588256442, 92.04411416462268, 9362.0, 34078.0, 35388.0, 9362.0, 8.271075248718262
389634, -0.6028186082839966, -0.1508694887161255, -9.297442436218262, 0.0, 0.0, -220.81976318359375, 0.0, 0.0, 0.01220703125, 0.025583956390619278, -1.6816498041152954, 0.06514099985361099, 1.5570409503616405, 0.2023876770632853, 92.0140214102676, 9362.0, 34078.0, 35388.0, 9362.0, 8.271075248718262
389644, -0.6010617017745972, -0.15180650353431702, -9.298715591430664, 0.0, 0.0, -220.81964111328125, 0.0, 0.0, 0.01220703125, 0.02559738978743553, -1.6816407442092896, 0.06513750553131104, 1.5534987156537148, 0.20863743891786157, 92.02253401906468, 9362.0, 34078.0, 35388.0, 9362.0, 8.271075248718262
389654, -0.6025657057762146, -0.15270698070526123, -9.29930591583252, 0.0, 0.0, -220.8193817138672, 0.0, 0.0, 0.02593994140625, 0.025540169328451157, -1.681637167930603, 0.06514332443475723, 1.5620321765211813, 0.207590725390304, 92.04308781207257, 9362.0, 34078.0, 35388.0, 9362.0, 8.271075248718262
389664, -0.6034194827079773, -0.15065935254096985, -9.300098419189453, 0.0, 0.0, -220.81912231445312, 0.0, 0.0, 0.02593994140625, 0.025581836700439453, -1.6816473007202148, 0.06515184789896011, 1.5555879813428142, 0.2075403359407062, 92.01885192286979, 9362.0, 34078.0, 35388.0, 9362.0, 8.271075248718262
389674, -0.6024179458618164, -0.15018245577812195, -9.299676895141602, 0.0, 0.0, -220.81884765625, 0.0, 0.0, 0.0274658203125, 0.02559712901711464, -1.6816397905349731, 0.06516660004854202, 1.5547689643106046, 0.20604747467194784, 92.01495549246722, 9362.0, 34078.0, 35388.0, 9362.0, 8.271075248718262
389684, -0.6031255125999451, -0.1483573168516159, -9.301898002624512, 0.0, 0.0, -220.81857299804688, 0.0, 0.0, 0.0274658203125, 0.025589900091290474, -1.681637167930603, 0.06515815109014511, 1.5598636293477435, 0.20994329395406908, 92.020661633181, 9362.0, 34078.0, 35388.0, 9362.0, 8.271075248718262
389694, -0.6039765477180481, -0.1470421403646469, -9.303003311157227, 0.0, 0.0, -220.81829833984375, 0.0, 0.0, 0.0274658203125, 0.025602174922823906, -1.6816256046295166, 0.06514249742031097, 1.559889692680462, 0.2160388807574236, 92.02307818946466, 9362.0, 34078.0, 35388.0, 9362.0, 8.271075248718262
389704, -0.604451060295105, -0.14658313989639282, -9.305485725402832, 0.0, 0.0, -220.81802368164062, 0.0, 0.0, 0.0274658203125, 0.025580957531929016, -1.6816496849060059, 0.06514724344015121, 1.555465231082624, 0.20931374744199616, 92.02321866008143, 9362.0, 34078.0, 35388.0, 9362.0, 8.271075248718262
389714, -0.6042436957359314, -0.14914622902870178, -9.307633399963379, 0.0, 0.0, -220.8177032470703, 0.0, 0.0, 0.03204345703125, 0.025584731251001358, -1.6816272735595703, 0.0651664063334465, 1.5533265519449813, 0.21129510404750818, 92.02256973340643, 9362.0, 34078.0, 35388.0, 9362.0, 8.271075248718262
389724, -0.6035928130149841, -0.14742471277713776, -9.306910514831543, 0.0, 0.0, -220.8173828125, 0.0, 0.0, 0.03204345703125, 0.025588056072592735, -1.6816401481628418, 0.06517597287893295, 1.5554461131582427, 0.2086427444583876, 92.01140277730299, 9362.0, 34078.0, 35388.0, 9362.0, 8.271075248718262
389734, -0.6024743318557739, -0.14546503126621246, -9.306525230407715, 0.0, 0.0, -220.81716918945312, 0.0, 0.0, 0.0213623046875, 0.025546224787831306, -1.681647777557373, 0.06515632569789886, 1.5654307434561294, 0.20544633871654128, 92.04153893801787, 9362.0, 34078.0, 35388.0, 9362.0, 8.271075248718262
389744, -0.6030622124671936, -0.14648544788360596, -9.306790351867676, 0.0, 0.0, -220.81695556640625, 0.0, 0.0, 0.0213623046875, 0.025587815791368484, -1.6816344261169434, 0.06515901535749435, 1.5555414376278853, 0.2122275848376205, 92.01192523531817, 9362.0, 34078.0, 35388.0, 9362.0, 8.271075248718262
389754, -0.6026845574378967, -0.14592386782169342, -9.310205459594727, 0.0, 0.0, -220.81698608398438, 0.0, 0.0, -0.0030517578125, 0.025594914332032204, -1.6816357374191284, 0.06513460725545883, 1.562425838888009, 0.211086905383695, 92.0164940831807, 9362.0, 34078.0, 35388.0, 9362.0, 8.271075248718262
389764, -0.6021415591239929, -0.14654897153377533, -9.310779571533203, 0.0, 0.0, -220.8170166015625, 0.0, 0.0, -0.0030517578125, 0.02557777799665928, -1.6816346645355225, 0.06514177471399307, 1.556101092412501, 0.20891289305103555, 92.01964453275414, 9362.0, 34078.0, 35388.0, 9362.0, 8.271075248718262
389774, -0.601673424243927, -0.14575845003128052, -9.310797691345215, 0.0, 0.0, -220.81692504882812, 0.0, 0.0, 0.0091552734375, 0.025597352534532547, -1.6816295385360718, 0.06516449898481369, 1.5569415920003822, 0.20700577728010217, 92.01845127228692, 9362.0, 34078.0, 35388.0, 9362.0, 8.271075248718262
389784, -0.6012575626373291, -0.14499574899673462, -9.31145191192627, 0.0, 0.0, -220.81683349609375, 0.0, 0.0, 0.0091552734375, 0.02564672753214836, -1.6816352605819702, 0.06518001854419708, 1.541982250399777, 0.21147271844543525, 91.98993528401122, 9362.0, 34078.0, 35388.0, 9362.0, 8.271075248718262
389794, -0.6017664670944214, -0.14643758535385132, -9.309371948242188, 0.0, 0.0, -220.81680297851562, 0.0, 0.0, 0.0030517578125, 0.0255492702126503, -1.6816245317459106, 0.0651395171880722, 1.5588563500881643, 0.21044207835382167, 92.04436665248464, 9362.0, 34078.0, 35388.0, 9362.0, 8.271075248718262
389804, -0.6028709411621094, -0.14304596185684204, -9.309388160705566, 0.0, 0.0, -220.8167724609375, 0.0, 0.0, 0.0030517578125, 0.02554088830947876, -1.6816301345825195, 0.06512771546840668, 1.5621197442972856, 0.2049455470360897, 92.03545282613379, 9362.0, 34078.0, 35388.0, 9362.0, 8.271075248718262
389814, -0.6016238927841187, -0.14355021715164185, -9.311114311218262, 0.0, 0.0, -220.81671142578125, 0.0, 0.0, 0.006103515625, 0.025592822581529617, -1.681634783744812, 0.06513744592666626, 1.5522988028133782, 0.20904705353456166, 92.01471107316759, 9362.0, 34078.0, 35388.0, 9362.0, 8.271075248718262
389824, -0.6019222140312195, -0.14583763480186462, -9.309470176696777, 0.0, 0.0, -220.816650390625, 0.0, 0.0, 0.006103515625, 0.02560565248131752, -1.6816303730010986, 0.0651431530714035, 1.5666816714189091, 0.20834719715961114, 92.01931075577633, 9362.0, 34078.0, 35388.0, 9362.0, 8.271075248718262
389834, -0.6002236008644104, -0.14599771797657013, -9.309385299682617, 0.0, 0.0, -220.81640625, 0.0, 0.0, 0.0244140625, 0.02560485154390335, -1.681628942489624, 0.0651346892118454, 1.5606338709251246, 0.20389365303475415, 92.01701046136843, 9362.0, 34078.0, 35388.0, 9362.0, 8.271075248718262
389844, -0.600754976272583, -0.14685621857643127, -9.307677268981934, 0.0, 0.0, -220.816162109375, 0.0, 0.0, 0.0244140625, 0.02558198943734169, -1.6816320419311523, 0.06515347957611084, 1.5547108175189908, 0.21350376493043655, 92.01878145174436, 9362.0, 34078.0, 35388.0, 9362.0, 8.271075248718262
389854, -0.6001425385475159, -0.142754465341568, -9.309890747070312, 0.0, 0.0, -220.8158416748047, 0.0, 0.0, 0.03204345703125, 0.02565072476863861, -1.6816389560699463, 0.06515511125326157, 1.546728578430897, 0.20909523298638533, 91.9968792897584, 9362.0, 34078.0, 35388.0, 9362.0, 8.271075248718262
389864, -0.5999077558517456, -0.1452731043100357, -9.310295104980469, 0.0, 0.0, -220.81552124023438, 0.0, 0.0, 0.03204345703125, 0.025590863078832626, -1.6816344261169434, 0.06515427678823471, 1.5527982927489679, 0.20965529458402443, 92.01590876348202, 9362.0, 34078.0, 35388.0, 9362.0, 8.271075248718262
389874, -0.5997351408004761, -0.14543718099594116, -9.31114673614502, 0.0, 0.0, -220.8150177001953, 0.0, 0.0, 0.05035400390625, 0.025563307106494904, -1.6816375255584717, 0.06514068692922592, 1.5647629083026955, 0.20390457538206874, 92.04355502241948, 9362.0, 34078.0, 35388.0, 9362.0, 8.271075248718262
389884, -0.5996828675270081, -0.14412778615951538, -9.312154769897461, 0.0, 0.0, -220.81451416015625, 0.0, 0.0, 0.05035400390625, 0.02559572458267212, -1.6816332340240479, 0.06514903903007507, 1.549515904112516, 0.2124013572500587, 92.01549948515223, 9362.0, 34078.0, 35388.0, 9362.0, 8.271075248718262
389894, -0.5994387269020081, -0.14281019568443298, -9.311368942260742, 0.0, 0.0, -220.8141632080078, 0.0, 0.0, 0.03509521484375, 0.02560870349407196, -1.681630253791809, 0.06514991074800491, 1.556607717521876, 0.2063919872754525, 92.01595918026692, 9362.0, 34078.0, 35388.0, 9362.0, 8.271075248718262
389904, -0.600856363773346, -0.14377620816230774, -9.310392379760742, 0.0, 0.0, -220.81381225585938, 0.0, 0.0, 0.03509521484375, 0.025591302663087845, -1.6816259622573853, 0.06513671576976776, 1.5575084199581082, 0.21053646318907226, 92.01296920348274, 9362.0, 34078.0, 35388.0, 9362.0, 8.271075248718262
389914, -0.6013481020927429, -0.14475023746490479, -9.309240341186523, 0.0, 0.0, -220.81370544433594, 0.0, 0.0, 0.01068115234375, 0.025558453053236008, -1.6816432476043701, 0.06515595316886902, 1.5603449197117285, 0.20735150441339556, 92.0433805738585, 9362.0, 34078.0, 35388.0, 9362.0, 8.271075248718262
389924, -0.6012721061706543, -0.14663207530975342, -9.309874534606934, 0.0, 0.0, -220.8135986328125, 0.0, 0.0, 0.01068115234375, 0.025592714548110962, -1.6816327571868896, 0.06515803188085556, 1.562057578022838, 0.20959828522373414, 92.02154549234318, 9362.0, 34078.0, 35388.0, 9362.0, 8.271075248718262
389934, -0.6029890179634094, -0.1478884369134903, -9.309171676635742, 0.0, 0.0, -220.8134765625, 0.0, 0.0, 0.01220703125, 0.02555534429848194, -1.6816326379776, 0.06514249742031097, 1.562711538972302, 0.21069065393436404, 92.04354716156155, 9362.0, 34078.0, 35388.0, 9362.0, 8.271075248718262
389944, -0.6038203239440918, -0.15067413449287415, -9.308439254760742, 0.0, 0.0, -220.8133544921875, 0.0, 0.0, 0.01220703125, 0.025556065142154694, -1.6816279888153076, 0.06515093892812729, 1.5654472113213707, 0.20393881718922557, 92.04268742232559, 9362.0, 34078.0, 35388.0, 9362.0, 8.271075248718262
389954, -0.60381019115448, -0.14998477697372437, -9.310491561889648, 0.0, 0.0, -220.81326293945312, 0.0, 0.0, 0.0091552734375, 0.0255960114300251, -1.681638240814209, 0.06516396999359131, 1.5570207656671622, 0.20320397976590243, 92.0186219062556, 9362.0, 34078.0, 35388.0, 9362.0, 8.271075248718262
389964, -0.6032887101173401, -0.14908923208713531, -9.31190299987793, 0.0, 0.0, -220.81317138671875, 0.0, 0.0, 0.0091552734375, 0.025601167231798172, -1.6816418170928955, 0.06518005579710007, 1.5612273668874443, 0.2033913830346421, 92.01473926901538, 9362.0, 34078.0, 35388.0, 9362.0, 8.271075248718262
389974, -0.6036211252212524, -0.14918439090251923, -9.310863494873047, 0.0, 0.0, -220.81326293945312, 0.0, 0.0, -0.0091552734375, 0.02560264617204666, -1.68163001537323, 0.0651487186551094, 1.5614229014802423, 0.21037731758880795, 92.01054021758901, 9362.0, 34078.0, 35388.0, 9362.0, 8.271075248718262
389984, -0.6037256121635437, -0.1491522639989853, -9.311697959899902, 0.0, 0.0, -220.8133544921875, 0.0, 0.0, -0.0091552734375, 0.02555156871676445, -1.681623935699463, 0.0651371106505394, 1.5631758898001955, 0.20716825973838127, 92.03758201282338, 9362.0, 34078.0, 35388.0, 9362.0, 8.271075248718262
389994, -0.6039418578147888, -0.1478322148323059, -9.310579299926758, 0.0, 0.0, -220.81349182128906, 0.0, 0.0, -0.01373291015625, 0.025601044297218323, -1.6816328763961792, 0.06516870856285095, 1.5547475427349733, 0.20701617931121064, 92.01750004153011, 9362.0, 34078.0, 35388.0, 9362.0, 8.271075248718262
390004, -0.603473961353302, -0.14984922111034393, -9.311427116394043, 0.0, 0.0, -220.81362915039062, 0.0, 0.0, -0.01373291015625, 0.02565588429570198, -1.6816329956054688, 0.06519323587417603, 1.5421942125943822, 0.21615953294750057, 91.99557388468648, 9362.0, 34078.0, 35388.0, 9362.0, 8.271075248718262
390014, -0.6024495959281921, -0.1508876532316208, -9.31395435333252, 0.0, 0.0, -220.81362915039062, 0.0, 0.0, 0.0, 0.025598041713237762, -1.681626558303833, 0.06514835357666016, 1.5672058951077026, 0.21107365728607874, 92.01809810409588, 9362.0, 34078.0, 35388.0, 9362.0, 8.271075248718262
390024, -0.6015279293060303, -0.15163332223892212, -9.316678047180176, 0.0, 0.0, -220.81362915039062, 0.0, 0.0, 0.0, 0.025592900812625885, -1.6816208362579346, 0.06517253816127777, 1.5560545241682453, 0.2066701869322003, 92.02029501914022, 9362.0, 34078.0, 35388.0, 9362.0, 8.271075248718262
390034, -0.6014865040779114, -0.1489737331867218, -9.3164644241333, 0.0, 0.0, -220.81346130371094, 0.0, 0.0, 0.01678466796875, 0.02561006508767605, -1.6816248893737793, 0.06515529006719589, 1.5505874027125053, 0.21058198284526952, 92.01830788474292, 9362.0, 34078.0, 35388.0, 9362.0, 8.271075248718262
390044, -0.6037880182266235, -0.14794154465198517, -9.315858840942383, 0.0, 0.0, -220.81329345703125, 0.0, 0.0, 0.01678466796875, 0.02560567855834961, -1.6816236972808838, 0.06516780704259872, 1.5555962348150583, 0.20878131023897595, 92.02258859646079, 9362.0, 34078.0, 35388.0, 9362.0, 8.271075248718262
390054, -0.6026995182037354, -0.14802344143390656, -9.315398216247559, 0.0, 0.0, -220.81317138671875, 0.0, 0.0, 0.01220703125, 0.025611698627471924, -1.6816297769546509, 0.06516784429550171, 1.5573215679631798, 0.21313957735847566, 92.01811050822852, 9362.0, 34078.0, 35388.0, 9362.0, 8.271075248718262
390064, -0.6038101315498352, -0.14914058148860931, -9.31586742401123, 0.0, 0.0, -220.81304931640625, 0.0, 0.0, 0.01220703125, 0.02560276910662651, -1.6816247701644897, 0.06515611708164215, 1.5509704381242888, 0.21555413760171405, 92.02271436939289, 9362.0, 34078.0, 35388.0, 9362.0, 8.271075248718262
390074, -0.6049280166625977, -0.14880260825157166, -9.314851760864258, 0.0, 0.0, -220.81304931640625, 0.0, 0.0, 0.0, 0.02555162087082863, -1.6816312074661255, 0.06514910608530045, 1.5650575748883944, 0.20430686799610953, 92.04053225544301, 9362.0, 34078.0, 35388.0, 9362.0, 8.271075248718262
390084, -0.6051123142242432, -0.14861831068992615, -9.314846992492676, 0.0, 0.0, -220.81304931640625, 0.0, 0.0, 0.0, 0.025589225813746452, -1.6816339492797852, 0.06517111510038376, 1.5554940129552142, 0.2111308279517914, 92.01977978083967, 9362.0, 34078.0, 35388.0, 9362.0, 8.271075248718262
390094, -0.6048636436462402, -0.15017201006412506, -9.314741134643555, 0.0, 0.0, -220.81298828125, 0.0, 0.0, 0.006103515625, 0.02558700367808342, -1.6816273927688599, 0.06517009437084198, 1.558138630486005, 0.2093888654998466, 92.018090001562, 9362.0, 34078.0, 35388.0, 9362.0, 8.271075248718262
390104, -0.6053441166877747, -0.15108607709407806, -9.313603401184082, 0.0, 0.0, -220.81292724609375, 0.0, 0.0, 0.006103515625, 0.02560741826891899, -1.6816165447235107, 0.06518282741308212, 1.5560562891434129, 0.208575952138915, 92.0206737023539, 9362.0, 34078.0, 35388.0, 9362.0, 8.271075248718262
390114, -0.604557454586029, -0.15268129110336304, -9.315361976623535, 0.0, 0.0, -220.81280517578125, 0.0, 0.0, 0.01220703125, 0.025558531284332275, -1.681616187095642, 0.06518397480249405, 1.5650552161803966, 0.21605993011144164, 92.0447992902396, 9362.0, 34078.0, 35388.0, 9362.0, 8.271075248718262
390124, -0.6048067808151245, -0.1547841727733612, -9.31310749053955, 0.0, 0.0, -220.81268310546875, 0.0, 0.0, 0.01220703125, 0.0255935937166214, -1.681624174118042, 0.06515570729970932, 1.5593735716267032, 0.21138047214202516, 92.01709078897963, 9362.0, 34078.0, 35388.0, 9362.0, 8.271075248718262
390134, -0.6043270826339722, -0.1575186848640442, -9.313141822814941, 0.0, 0.0, -220.81256103515625, 0.0, 0.0, 0.01220703125, 0.025602171197533607, -1.6816112995147705, 0.06515724956989288, 1.5565207871270101, 0.20942782266186555, 92.02366695166312, 9362.0, 34078.0, 35388.0, 9362.0, 8.271075248718262
390144, -0.604373037815094, -0.15750989317893982, -9.3123779296875, 0.0, 0.0, -220.81243896484375, 0.0, 0.0, 0.01220703125, 0.025601590052247047, -1.6816216707229614, 0.06517212837934494, 1.5574886162333437, 0.20900968512765417, 92.0269675229355, 9362.0, 34078.0, 35388.0, 9362.0, 8.271075248718262
390154, -0.6052562594413757, -0.15406197309494019, -9.31338119506836, 0.0, 0.0, -220.81227111816406, 0.0, 0.0, 0.01678466796875, 0.025602422654628754, -1.6816191673278809, 0.06517653912305832, 1.5580479197033796, 0.2134892315038428, 92.02366261182044, 9362.0, 34078.0, 35388.0, 9362.0, 8.271075248718262
390164, -0.6054145097732544, -0.1541009247303009, -9.313940048217773, 0.0, 0.0, -220.81210327148438, 0.0, 0.0, 0.01678466796875, 0.02559695392847061, -1.6816174983978271, 0.06516365706920624, 1.5640597642432421, 0.20837015051682783, 92.01818011997226, 9362.0, 34078.0, 35388.0, 9362.0, 8.271075248718262
390174, -0.603618323802948, -0.15489673614501953, -9.314704895019531, 0.0, 0.0, -220.81201171875, 0.0, 0.0, 0.0091552734375, 0.025596890598535538, -1.6816222667694092, 0.06516637653112411, 1.5584292202161685, 0.20918574549870073, 92.02258062315705, 9362.0, 34078.0, 35388.0, 9362.0, 8.271075248718262
390184, -0.6044263243675232, -0.1542922854423523, -9.314507484436035, 0.0, 0.0, -220.81192016601562, 0.0, 0.0, 0.0091552734375, 0.025597311556339264, -1.6816141605377197, 0.06516293436288834, 1.557582123628283, 0.21287256662256482, 92.01941655021399, 9362.0, 34078.0, 35388.0, 9362.0, 8.271075248718262
390194, -0.6034423112869263, -0.15460927784442902, -9.31596565246582, 0.0, 0.0, -220.8117218017578, 0.0, 0.0, 0.01983642578125, 0.025601085275411606, -1.6816200017929077, 0.06516283750534058, 1.5598204804214542, 0.21148706620397206, 92.0183009195923, 9362.0, 34078.0, 35388.0, 9362.0, 8.271075248718262
390204, -0.6040892601013184, -0.15655867755413055, -9.315108299255371, 0.0, 0.0, -220.8115234375, 0.0, 0.0, 0.01983642578125, 0.025601521134376526, -1.6816332340240479, 0.06513283401727676, 1.5526789269306651, 0.2064682449713473, 92.01980223563007, 9362.0, 34078.0, 35388.0, 9362.0, 8.271075248718262
390214, -0.6049092411994934, -0.15615293383598328, -9.314247131347656, 0.0, 0.0, -220.81149291992188, 0.0, 0.0, 0.0030517578125, 0.025596993044018745, -1.6816256046295166, 0.06517722457647324, 1.5615568720826827, 0.21356685870469505, 92.01300455460641, 9362.0, 34078.0, 35388.0, 9362.0, 8.271075248718262
390224, -0.6032689213752747, -0.15610109269618988, -9.315333366394043, 0.0, 0.0, -220.81146240234375, 0.0, 0.0, 0.0030517578125, 0.02560470812022686, -1.6816385984420776, 0.06519335508346558, 1.553792877365689, 0.20751659945003098, 92.01936466771205, 9362.0, 34078.0, 35388.0, 9362.0, 8.271075248718262
390234, -0.603950023651123, -0.15745769441127777, -9.314996719360352, 0.0, 0.0, -220.8114471435547, 0.0, 0.0, 0.00152587890625, 0.025600165128707886, -1.6816227436065674, 0.06516154110431671, 1.5587910122557072, 0.21316808501600804, 92.01520091822624, 9362.0, 34078.0, 35388.0, 9362.0, 8.271075248718262
390244, -0.6050827503204346, -0.1564008593559265, -9.31441879272461, 0.0, 0.0, -220.81143188476562, 0.0, 0.0, 0.00152587890625, 0.025588631629943848, -1.681639552116394, 0.0651460587978363, 1.5605931606898495, 0.2070741649469312, 92.01379310885781, 9362.0, 34078.0, 35388.0, 9362.0, 8.271075248718262
390254, -0.605729341506958, -0.15423305332660675, -9.316940307617188, 0.0, 0.0, -220.81129455566406, 0.0, 0.0, 0.01373291015625, 0.025650065392255783, -1.6816372871398926, 0.06516730785369873, 1.5496652397946409, 0.210921942421038, 91.9967166827721, 9362.0, 34078.0, 35388.0, 9362.0, 8.271075248718262
390264, -0.6067994832992554, -0.15379467606544495, -9.316539764404297, 0.0, 0.0, -220.8111572265625, 0.0, 0.0, 0.01373291015625, 0.025594886392354965, -1.681632161140442, 0.06517332792282104, 1.5548573893997442, 0.20178349495367343, 92.0126659388158, 9362.0, 34078.0, 35388.0, 9362.0, 8.271075248718262
390274, -0.6073574423789978, -0.15653690695762634, -9.315858840942383, 0.0, 0.0, -220.81117248535156, 0.0, 0.0, -0.00152587890625, 0.025596927851438522, -1.6816229820251465, 0.06515565514564514, 1.5544553248455124, 0.21294004023226876, 92.01962821299759, 9362.0, 34078.0, 35388.0, 9362.0, 8.271075248718262
390284, -0.608927309513092, -0.15496334433555603, -9.314946174621582, 0.0, 0.0, -220.81118774414062, 0.0, 0.0, -0.00152587890625, 0.02559681236743927, -1.6816295385360718, 0.06518854945898056, 1.556483415301114, 0.2107715281239564, 92.01838569240044, 9362.0, 34078.0, 35388.0, 9362.0, 8.271075248718262
390294, -0.6093891859054565, -0.1542547643184662, -9.311722755432129, 0.0, 0.0, -220.81097412109375, 0.0, 0.0, 0.0213623046875, 0.025583192706108093, -1.6816259622573853, 0.06514972448348999, 1.5595750520867953, 0.21167462117733749, 92.01811933292754, 9362.0, 34078.0, 35388.0, 9362.0, 8.271075248718262
390304, -0.6085883378982544, -0.1557459831237793, -9.31064224243164, 0.0, 0.0, -220.81076049804688, 0.0, 0.0, 0.0213623046875, 0.025583647191524506, -1.6816256046295166, 0.06516191363334656, 1.559466273298164, 0.20790349274170694, 92.01960863502065, 9362.0, 34078.0, 35388.0, 9362.0, 8.271075248718262
390314, -0.6098356246948242, -0.15630944073200226, -9.312231063842773, 0.0, 0.0, -220.8104705810547, 0.0, 0.0, 0.02899169921875, 0.025603586807847023, -1.6816298961639404, 0.06518425792455673, 1.5546581301341835, 0.20848232234430952, 92.01875168857246, 9362.0, 34078.0, 35388.0, 9362.0, 8.271075248718262
390324, -0.6108810305595398, -0.15692494809627533, -9.309757232666016, 0.0, 0.0, -220.8101806640625, 0.0, 0.0, 0.02899169921875, 0.025600027292966843, -1.681627631187439, 0.06517133116722107, 1.5554928421535579, 0.21168041103351243, 92.02158919244468, 9362.0, 34078.0, 35388.0, 9362.0, 8.271075248718262
390334, -0.6117450594902039, -0.1537168323993683, -9.309417724609375, 0.0, 0.0, -220.80996704101562, 0.0, 0.0, 0.0213623046875, 0.025540899485349655, -1.6816314458847046, 0.06514038890600204, 1.5604065514115677, 0.2127332658781711, 92.0379469521248, 9362.0, 34078.0, 35388.0, 9362.0, 8.271075248718262
390344, -0.6130601167678833, -0.1546052247285843, -9.307940483093262, 0.0, 0.0, -220.80975341796875, 0.0, 0.0, 0.0213623046875, 0.025593874976038933, -1.6816281080245972, 0.06518492102622986, 1.5579403937763254, 0.2078707687842325, 92.02139263154703, 9362.0, 34078.0, 35388.0, 9362.0, 8.271075248718262
390354, -0.6126664876937866, -0.1533006727695465, -9.310072898864746, 0.0, 0.0, -220.8098907470703, 0.0, 0.0, -0.01373291015625, 0.02559669502079487, -1.6816354990005493, 0.06517099589109421, 1.557240007505816, 0.20934904004559485, 92.0183243726807, 9362.0, 34078.0, 35388.0, 9362.0, 8.271075248718262
390364, -0.6109397411346436, -0.15409459173679352, -9.309447288513184, 0.0, 0.0, -220.81002807617188, 0.0, 0.0, -0.01373291015625, 0.025593766942620277, -1.6816400289535522, 0.0651596188545227, 1.5571977658546239, 0.2099653487888986, 92.02118776919882, 9362.0, 34078.0, 35388.0, 9362.0, 8.271075248718262
390374, -0.6102337837219238, -0.15865635871887207, -9.310114860534668, 0.0, 0.0, -220.8101348876953, 0.0, 0.0, -0.01068115234375, 0.025640707463026047, -1.6816473007202148, 0.06517434865236282, 1.5438789716664278, 0.20812250406137878, 91.98864766163464, 9362.0, 34078.0, 35388.0, 9362.0, 8.271075248718262
390384, -0.6096512079238892, -0.15847526490688324, -9.311867713928223, 0.0, 0.0, -220.8102264404297, 0.0, 0.0, -0.0091552734375, 0.02565038576722145, -1.6816450357437134, 0.065178282558918, 1.5496723186095305, 0.21082132223583017, 91.98859960382529, 9362.0, 34078.0, 35388.0, 9362.0, 8.271075248718262
390394, -0.6095150709152222, -0.15897101163864136, -9.311234474182129, 0.0, 0.0, -220.8101806640625, 0.0, 0.0, 0.00457763671875, 0.02560696192085743, -1.6816306114196777, 0.06515368074178696, 1.5615360060106798, 0.2079305969923837, 92.0159612378884, 9362.0, 34078.0, 35388.0, 9362.0, 8.271075248718262
390404, -0.6090713739395142, -0.16117115318775177, -9.31051254272461, 0.0, 0.0, -220.8101348876953, 0.0, 0.0, 0.00457763671875, 0.025585727766156197, -1.6816271543502808, 0.06514886766672134, 1.5572536703496416, 0.20428708310257093, 92.02576266791321, 9362.0, 34078.0, 35388.0, 9362.0, 8.271075248718262
390414, -0.6104227900505066, -0.16315701603889465, -9.311168670654297, 0.0, 0.0, -220.80990600585938, 0.0, 0.0, 0.02288818359375, 0.025632891803979874, -1.6816354990005493, 0.0650707334280014, 1.5838458611969366, 0.18347366871429927, 92.01057162780269, 9362.0, 34078.0, 35388.0, 9362.0, 8.271075248718262
390424, -0.6107962727546692, -0.16253969073295593, -9.31063175201416, 0.0, 0.0, -220.80967712402344, 0.0, 0.0, 0.02288818359375, 0.025614185258746147, -1.6816253662109375, 0.06516554951667786, 1.5563449721449105, 0.21261450670755266, 92.01972440110289, 9362.0, 34078.0, 35388.0, 9362.0, 8.271075248718262
390434, -0.6116656064987183, -0.1625296175479889, -9.31010913848877, 0.0, 0.0, -220.8094482421875, 0.0, 0.0, 0.02288818359375, 0.02560746669769287, -1.6816234588623047, 0.06515499949455261, 1.5648545494552255, 0.20613836846393951, 92.0178952139803, 9362.0, 34078.0, 35388.0, 9362.0, 8.271075248718262
390444, -0.6115151047706604, -0.1616591364145279, -9.310867309570312, 0.0, 0.0, -220.80921936035156, 0.0, 0.0, 0.02288818359375, 0.025591984391212463, -1.6816409826278687, 0.065147265791893, 1.558777465249827, 0.2156887916495407, 92.01828345808788, 9362.0, 34078.0, 35388.0, 9362.0, 8.271075248718262
390454, -0.6114205121994019, -0.1593356877565384, -9.31145191192627, 0.0, 0.0, -220.80894470214844, 0.0, 0.0, 0.0274658203125, 0.02560139074921608, -1.6816304922103882, 0.06515153497457504, 1.5574906369290478, 0.21712981361162065, 92.01888489278794, 9362.0, 34078.0, 35388.0, 9362.0, 8.271075248718262
390464, -0.6116762757301331, -0.15845750272274017, -9.310478210449219, 0.0, 0.0, -220.80868530273438, 0.0, 0.0, 0.02593994140625, 0.02560531720519066, -1.681626319885254, 0.06516627967357635, 1.558775886417895, 0.21316860825601225, 92.02417660548028, 9362.0, 34078.0, 35388.0, 9362.0, 8.271075248718262
390474, -0.6108033657073975, -0.15903711318969727, -9.3102445602417, 0.0, 0.0, -220.80845642089844, 0.0, 0.0, 0.02288818359375, 0.02560454234480858, -1.681625485420227, 0.06518304347991943, 1.5549968989697005, 0.21107883332817323, 92.02650743753587, 9362.0, 34078.0, 35388.0, 9362.0, 8.271075248718262
390484, -0.6111370325088501, -0.16012710332870483, -9.307661056518555, 0.0, 0.0, -220.8082275390625, 0.0, 0.0, 0.02288818359375, 0.02554888278245926, -1.6816248893737793, 0.06516245007514954, 1.564193690294825, 0.2091790719186406, 92.04056807767854, 9362.0, 34078.0, 35388.0, 9362.0, 8.271075248718262
390494, -0.6109752655029297, -0.16051262617111206, -9.308259963989258, 0.0, 0.0, -220.8080596923828, 0.0, 0.0, 0.01678466796875, 0.025608930736780167, -1.6816105842590332, 0.0651932954788208, 1.5581887710490208, 0.20693658517700442, 92.02566056883009, 9362.0, 34078.0, 35388.0, 9362.0, 8.271075248718262
390504, -0.6095743775367737, -0.15872512757778168, -9.309566497802734, 0.0, 0.0, -220.80789184570312, 0.0, 0.0, 0.01678466796875, 0.025607306510210037, -1.681623935699463, 0.06517016887664795, 1.5623966939415623, 0.2112315788350827, 92.01482927052899, 9362.0, 34078.0, 35388.0, 9362.0, 8.271075248718262
390514, -0.6093398332595825, -0.1548195779323578, -9.312178611755371, 0.0, 0.0, -220.8077392578125, 0.0, 0.0, 0.0152587890625, 0.02565392106771469, -1.6816372871398926, 0.06516677141189575, 1.547563545622353, 0.21039401703799854, 91.99696613441593, 9362.0, 34078.0, 35388.0, 9362.0, 8.271075248718262
390524, -0.6092851758003235, -0.15688136219978333, -9.311302185058594, 0.0, 0.0, -220.80758666992188, 0.0, 0.0, 0.0152587890625, 0.025600723922252655, -1.681611180305481, 0.06517431885004044, 1.561121059438999, 0.2142887448015074, 92.01958340694685, 9362.0, 34078.0, 35388.0, 9362.0, 8.271075248718262
390534, -0.6091461777687073, -0.15825505554676056, -9.310601234436035, 0.0, 0.0, -220.8074951171875, 0.0, 0.0, 0.0091552734375, 0.025558702647686005, -1.6816120147705078, 0.06517241895198822, 1.5611041363609295, 0.2094775544506149, 92.04112145103238, 9362.0, 34078.0, 35388.0, 9362.0, 8.271075248718262
390544, -0.6088066697120667, -0.15684795379638672, -9.312121391296387, 0.0, 0.0, -220.80740356445312, 0.0, 0.0, 0.0091552734375, 0.025587547570466995, -1.6816270351409912, 0.06518957763910294, 1.558054357615183, 0.211226072919942, 92.01434689257884, 9362.0, 34078.0, 35388.0, 9362.0, 8.271075248718262
390554, -0.6091051697731018, -0.15545324981212616, -9.313719749450684, 0.0, 0.0, -220.80731201171875, 0.0, 0.0, 0.0091552734375, 0.025600537657737732, -1.6816320419311523, 0.06518751382827759, 1.5534594276557323, 0.20893838986125957, 92.01995337592409, 9362.0, 34078.0, 35388.0, 9362.0, 8.271075248718262
390564, -0.6099883913993835, -0.15504644811153412, -9.314973831176758, 0.0, 0.0, -220.80722045898438, 0.0, 0.0, 0.0091552734375, 0.0256007332354784, -1.6816201210021973, 0.06519271433353424, 1.5551175074613672, 0.2134249898031726, 92.01304196979375, 9362.0, 34078.0, 35388.0, 9362.0, 8.271075248718262
390574, -0.6105520129203796, -0.15295571088790894, -9.318153381347656, 0.0, 0.0, -220.80715942382812, 0.0, 0.0, 0.006103515625, 0.0255918949842453, -1.6816297769546509, 0.06515970826148987, 1.559216242228407, 0.20794631377412998, 92.02026572965545, 9362.0, 34078.0, 35388.0, 9362.0, 8.271075248718262
390584, -0.6109487414360046, -0.1528402864933014, -9.318890571594238, 0.0, 0.0, -220.80709838867188, 0.0, 0.0, 0.006103515625, 0.02560371905565262, -1.6816223859786987, 0.06517349183559418, 1.5596812227558734, 0.20596014951831876, 92.01830253216171, 9362.0, 34078.0, 35388.0, 9362.0, 8.271075248718262
390594, -0.610776424407959, -0.15209157764911652, -9.317952156066895, 0.0, 0.0, -220.80712890625, 0.0, 0.0, -0.0030517578125, 0.025651589035987854, -1.6816389560699463, 0.06521663814783096, 1.537243326942482, 0.21548662878407754, 91.99365580393507, 9362.0, 34078.0, 35388.0, 9362.0, 8.271075248718262
390604, -0.6104118824005127, -0.15243473649024963, -9.316793441772461, 0.0, 0.0, -220.80715942382812, 0.0, 0.0, -0.0030517578125, 0.025599783286452293, -1.6816210746765137, 0.06520075350999832, 1.5513062326249911, 0.20836939243457664, 92.01598961654481, 9362.0, 34078.0, 35388.0, 9362.0, 8.271075248718262
390614, -0.610328197479248, -0.15627548098564148, -9.315340995788574, 0.0, 0.0, -220.80711364746094, 0.0, 0.0, 0.00457763671875, 0.025594916194677353, -1.6816225051879883, 0.06516778469085693, 1.5589664888796277, 0.205440332458096, 92.02380119810049, 9362.0, 34078.0, 35388.0, 9362.0, 8.271075248718262
390624, -0.6112003922462463, -0.1525505930185318, -9.315465927124023, 0.0, 0.0, -220.80706787109375, 0.0, 0.0, 0.00457763671875, 0.025647416710853577, -1.6816332340240479, 0.06517770141363144, 1.5437505680115762, 0.2126418508297263, 91.9951576496474, 9362.0, 34078.0, 35388.0, 9362.0, 8.271075248718262
390634, -0.6109296679496765, -0.15083806216716766, -9.316365242004395, 0.0, 0.0, -220.8070068359375, 0.0, 0.0, 0.006103515625, 0.025634970515966415, -1.6816222667694092, 0.06503162533044815, 1.5923121346765483, 0.17631442349551207, 92.00686923631531, 9362.0, 34078.0, 35388.0, 9362.0, 8.271075248718262
390644, -0.6117896437644958, -0.15058094263076782, -9.314326286315918, 0.0, 0.0, -220.80694580078125, 0.0, 0.0, 0.006103515625, 0.025663800537586212, -1.6816339492797852, 0.06517598778009415, 1.5421525812551253, 0.21561944946643052, 91.99397708060091, 9362.0, 34078.0, 35388.0, 9362.0, 8.271075248718262
390654, -0.6110869646072388, -0.1517433226108551, -9.315343856811523, 0.0, 0.0, -220.80665588378906, 0.0, 0.0, 0.02899169921875, 0.025597436353564262, -1.6816177368164062, 0.06516345590353012, 1.5562483703142682, 0.20896745532300542, 92.0208437382633, 9362.0, 34078.0, 35388.0, 9362.0, 8.271075248718262
390664, -0.6120714545249939, -0.15398524701595306, -9.314214706420898, 0.0, 0.0, -220.80636596679688, 0.0, 0.0, 0.02899169921875, 0.025609374046325684, -1.6816301345825195, 0.06517109274864197, 1.5628975715774702, 0.2130843190021494, 92.0222130787586, 9362.0, 34078.0, 35388.0, 9362.0, 8.271075248718262
390674, -0.6126194000244141, -0.15510503947734833, -9.315083503723145, 0.0, 0.0, -220.8060302734375, 0.0, 0.0, 0.0335693359375, 0.025601927191019058, -1.681621789932251, 0.06517358124256134, 1.5562950925741152, 0.21608409525435945, 92.01617735501513, 9362.0, 34078.0, 35388.0, 9362.0, 8.271075248718262
390684, -0.6129347085952759, -0.15737345814704895, -9.315218925476074, 0.0, 0.0, -220.80569458007812, 0.0, 0.0, 0.0335693359375, 0.025592140853405, -1.681628704071045, 0.06515368819236755, 1.5527590876276003, 0.20941246582856365, 92.01701632793356, 9362.0, 34078.0, 35388.0, 9362.0, 8.271075248718262
390694, -0.6122062802314758, -0.15662573277950287, -9.315630912780762, 0.0, 0.0, -220.80528259277344, 0.0, 0.0, 0.04119873046875, 0.025646384805440903, -1.681632399559021, 0.06519688665866852, 1.54363415584924, 0.21743215219822787, 92.00024146639268, 9362.0, 34078.0, 35388.0, 9362.0, 8.271075248718262
390704, -0.6123499870300293, -0.15564875304698944, -9.316536903381348, 0.0, 0.0, -220.8048858642578, 0.0, 0.0, 0.0396728515625, 0.025600675493478775, -1.6816328763961792, 0.06518241763114929, 1.5506625805496541, 0.2064612539416828, 92.01806399655815, 9362.0, 34078.0, 35388.0, 9362.0, 8.271075248718262
390714, -0.6105070114135742, -0.1571943610906601, -9.31601619720459, 0.0, 0.0, -220.80462646484375, 0.0, 0.0, 0.02593994140625, 0.02556091919541359, -1.6816257238388062, 0.06514020264148712, 1.5640665968661778, 0.2044953562109697, 92.05027672854659, 9362.0, 34078.0, 35388.0, 9362.0, 8.271075248718262
390734, -0.6103939414024353, -0.15495048463344574, -9.31850528717041, 0.0, 0.0, -220.8042449951172, 0.0, 0.0, 0.01220703125, 0.025604119524359703, -1.6816257238388062, 0.065160371363163, 1.560059743996329, 0.2115991287019483, 92.018713639291, 9362.0, 34078.0, 35388.0, 9362.0, 8.271075248718262
390744, -0.6108453273773193, -0.1539674997329712, -9.31960678100586, 0.0, 0.0, -220.8042449951172, 0.0, 0.0, 0.01220703125, 0.025600861757993698, -1.6816248893737793, 0.06515529751777649, 1.560811361972858, 0.20770491810040426, 92.01897597708965, 9362.0, 34078.0, 35388.0, 9362.0, 8.271075248718262
390754, -0.6114723086357117, -0.1544419676065445, -9.31981086730957, 0.0, 0.0, -220.80404663085938, 0.0, 0.0, 0.00762939453125, 0.02561647817492485, -1.68162202835083, 0.0651470273733139, 1.557268952702829, 0.20869057231030297, 92.01121407941682, 9362.0, 34078.0, 35388.0, 9362.0, 8.271075248718262
390764, -0.611106812953949, -0.15678906440734863, -9.320012092590332, 0.0, 0.0, -220.80397033691406, 0.0, 0.0, 0.00762939453125, 0.025609886273741722, -1.6816151142120361, 0.06515691429376602, 1.558120083156787, 0.21154530166862173, 92.01851072565083, 9362.0, 34078.0, 35388.0, 9362.0, 8.271075248718262
390774, -0.6096062660217285, -0.15760108828544617, -9.319950103759766, 0.0, 0.0, -220.80369567871094, 0.0, 0.0, 0.0274658203125, 0.025602594017982483, -1.681618094444275, 0.06515796482563019, 1.5593594208935848, 0.20991139949069293, 92.01891610379822, 9362.0, 34078.0, 35388.0, 9362.0, 8.271075248718262
390784, -0.6095445156097412, -0.15527869760990143, -9.321856498718262, 0.0, 0.0, -220.8034210205078, 0.0, 0.0, 0.0274658203125, 0.02560988813638687, -1.6816203594207764, 0.06516889482736588, 1.5602961557672723, 0.21239625412070495, 92.0184495706883, 9362.0, 34078.0, 35388.0, 9362.0, 8.271075248718262
390794, -0.610136091709137, -0.15292935073375702, -9.32293701171875, 0.0, 0.0, -220.8031768798828, 0.0, 0.0, 0.0244140625, 0.02559550665318966, -1.681633710861206, 0.0651586577296257, 1.5567186595870666, 0.21522315395375813, 92.02647083788422, 9362.0, 34078.0, 35388.0, 9362.0, 8.271075248718262
390804, -0.610194981098175, -0.15261957049369812, -9.323234558105469, 0.0, 0.0, -220.8029327392578, 0.0, 0.0, 0.0244140625, 0.025600150227546692, -1.6816325187683105, 0.06515881419181824, 1.5562959186481193, 0.2119124504554577, 92.01684510390095, 9362.0, 34078.0, 35388.0, 9362.0, 8.271075248718262
390814, -0.6093050837516785, -0.15453188121318817, -9.324319839477539, 0.0, 0.0, -220.80279541015625, 0.0, 0.0, 0.01373291015625, 0.025595059618353844, -1.6816405057907104, 0.065159872174263, 1.5592945065668993, 0.20275366852754928, 92.01820007976224, 9362.0, 34078.0, 35388.0, 9362.0, 8.271075248718262
390824, -0.6100708246231079, -0.1554393172264099, -9.324264526367188, 0.0, 0.0, -220.8026580810547, 0.0, 0.0, 0.01373291015625, 0.025598295032978058, -1.6816314458847046, 0.06514858454465866, 1.5570708263306694, 0.21618680487199526, 92.02013692016081, 9362.0, 34078.0, 35388.0, 9362.0, 8.271075248718262
390834, -0.6096246242523193, -0.15830782055854797, -9.322199821472168, 0.0, 0.0, -220.80271911621094, 0.0, 0.0, -0.006103515625, 0.025598229840397835, -1.681633710861206, 0.06515999883413315, 1.5550325054785186, 0.2170038691675984, 92.01961716508451, 9362.0, 34078.0, 35388.0, 9362.0, 8.271075248718262
390844, -0.6117191910743713, -0.15733106434345245, -9.321611404418945, 0.0, 0.0, -220.8027801513672, 0.0, 0.0, -0.006103515625, 0.025599230080842972, -1.6816297769546509, 0.06516601890325546, 1.5567510598814263, 0.21727448443800768, 92.02154720975102, 9362.0, 34078.0, 35388.0, 9362.0, 8.271075248718262
390854, -0.611273467540741, -0.15973474085330963, -9.320981979370117, 0.0, 0.0, -220.80296325683594, 0.0, 0.0, -0.018310546875, 0.025603441521525383, -1.6816182136535645, 0.06517944484949112, 1.5572981987359493, 0.21285802511008, 92.02394714293663, 9362.0, 34078.0, 35388.0, 9362.0, 8.271075248718262
390864, -0.6108112931251526, -0.1577807366847992, -9.320337295532227, 0.0, 0.0, -220.8031463623047, 0.0, 0.0, -0.018310546875, 0.02559146285057068, -1.6816279888153076, 0.06518600136041641, 1.555071226099668, 0.20809061317083888, 92.01400805982162, 9362.0, 34078.0, 35388.0, 9362.0, 8.271075248718262
390874, -0.6104941368103027, -0.15806171298027039, -9.320610046386719, 0.0, 0.0, -220.80300903320312, 0.0, 0.0, 0.01373291015625, 0.025588827207684517, -1.681633472442627, 0.06517469882965088, 1.5523821490055167, 0.21454176693089266, 92.01382928057338, 9362.0, 34078.0, 35388.0, 9362.0, 8.271075248718262
390884, -0.6106018424034119, -0.15675579011440277, -9.321390151977539, 0.0, 0.0, -220.80300903320312, 0.0, 0.0, 0.01373291015625, 0.025639353320002556, -1.6816375255584717, 0.06519120931625366, 1.5460154228073042, 0.21126808978186773, 91.9919650750166, 9362.0, 34078.0, 35388.0, 9362.0, 8.271075248718262
390894, -0.6121941804885864, -0.15628653764724731, -9.322039604187012, 0.0, 0.0, -220.80262756347656, 0.0, 0.0, 0.0244140625, 0.0255967378616333, -1.6816282272338867, 0.06517846882343292, 1.551821111945209, 0.20629153010341383, 92.02185612047599, 9362.0, 34078.0, 35388.0, 9362.0, 8.271075248718262
390904, -0.6126486659049988, -0.1559569537639618, -9.323075294494629, 0.0, 0.0, -220.80238342285156, 0.0, 0.0, 0.0244140625, 0.02559785544872284, -1.6816226243972778, 0.06518508493900299, 1.5527645912136148, 0.20125008170148817, 92.02255288260018, 9362.0, 34078.0, 35388.0, 9362.0, 8.271075248718262
390914, -0.6125460863113403, -0.15535792708396912, -9.322998046875, 0.0, 0.0, -220.8020782470703, 0.0, 0.0, 0.030517578125, 0.025593537837266922, -1.6816315650939941, 0.06517669558525085, 1.5599333579558898, 0.20807434362473032, 92.02077628426493, 9362.0, 34078.0, 35388.0, 9362.0, 8.271075248718262
390924, -0.6114080548286438, -0.1541585475206375, -9.322489738464355, 0.0, 0.0, -220.80177307128906, 0.0, 0.0, 0.030517578125, 0.02553568407893181, -1.6816275119781494, 0.06516702473163605, 1.5600027271223376, 0.2085415940196924, 92.04753621088172, 9362.0, 34078.0, 35388.0, 9362.0, 8.271075248718262
390934, -0.6125562191009521, -0.15281614661216736, -9.32193374633789, 0.0, 0.0, -220.80149841308594, 0.0, 0.0, 0.0274658203125, 0.02560586854815483, -1.6816253662109375, 0.0651642456650734, 1.5578296472780233, 0.20542712613899994, 92.0221705434518, 9362.0, 34078.0, 35388.0, 9362.0, 8.271075248718262
390944, -0.6124365329742432, -0.15339893102645874, -9.323028564453125, 0.0, 0.0, -220.8012237548828, 0.0, 0.0, 0.0274658203125, 0.025594498962163925, -1.6816333532333374, 0.06516408175230026, 1.5552046209141301, 0.21032262564901316, 92.02165224556325, 9362.0, 34078.0, 35388.0, 9362.0, 8.271075248718262
390954, -0.6130747199058533, -0.153019979596138, -9.324010848999023, 0.0, 0.0, -220.80081176757812, 0.0, 0.0, 0.04119873046875, 0.025648530572652817, -1.6816304922103882, 0.06517373025417328, 1.5387139657644686, 0.22196747090336544, 91.99608911110504, 9362.0, 34078.0, 35388.0, 9362.0, 8.271075248718262
390964, -0.6130097508430481, -0.15349341928958893, -9.325037002563477, 0.0, 0.0, -220.80039978027344, 0.0, 0.0, 0.04119873046875, 0.0255829319357872, -1.6816409826278687, 0.06514541059732437, 1.5589075931365528, 0.20874248195582368, 92.02297655976581, 9362.0, 34078.0, 35388.0, 9362.0, 8.271075248718262
390974, -0.6123563647270203, -0.15235981345176697, -9.325432777404785, 0.0, 0.0, -220.79981994628906, 0.0, 0.0, 0.0579833984375, 0.02555827423930168, -1.6816303730010986, 0.06514699757099152, 1.5683776601349004, 0.20412887857071382, 92.04347862947236, 9362.0, 34078.0, 35388.0, 9362.0, 8.271075248718262
390984, -0.612770676612854, -0.1534966379404068, -9.326005935668945, 0.0, 0.0, -220.7992401123047, 0.0, 0.0, 0.0579833984375, 0.025599638000130653, -1.6816284656524658, 0.06516459584236145, 1.5581304698316907, 0.20998926376884697, 92.0155040091073, 9362.0, 34078.0, 35388.0, 9362.0, 8.271075248718262
390994, -0.6128447651863098, -0.15391382575035095, -9.325740814208984, 0.0, 0.0, -220.7986602783203, 0.0, 0.0, 0.0579833984375, 0.02559652179479599, -1.6816221475601196, 0.0651484876871109, 1.5558586588901018, 0.2069027351516297, 92.022389539026, 9362.0, 34078.0, 35388.0, 9362.0, 8.271075248718262
391004, -0.6131924390792847, -0.15355375409126282, -9.325040817260742, 0.0, 0.0, -220.79808044433594, 0.0, 0.0, 0.0579833984375, 0.025558140128850937, -1.681622862815857, 0.06514299660921097, 1.5638189837945844, 0.20717576711552965, 92.04051582014954, 9362.0, 34078.0, 35388.0, 9362.0, 8.271075248718262
391014, -0.6124697327613831, -0.154070645570755, -9.325698852539062, 0.0, 0.0, -220.79766845703125, 0.0, 0.0, 0.04119873046875, 0.025609798729419708, -1.6816283464431763, 0.06516429036855698, 1.558796900778818, 0.2066650602942275, 92.01837780353156, 9362.0, 34078.0, 35388.0, 9362.0, 8.271075248718262
391024, -0.6114100217819214, -0.1553393453359604, -9.32556438446045, 0.0, 0.0, -220.79725646972656, 0.0, 0.0, 0.04119873046875, 0.02557116560637951, -1.6816256046295166, 0.06513853371143341, 1.5705616340243167, 0.2029822628665272, 92.03898411846927, 9362.0, 34078.0, 35388.0, 9362.0, 8.271075248718262
391034, -0.6134822368621826, -0.15490451455116272, -9.323317527770996, 0.0, 0.0, -220.7968292236328, 0.0, 0.0, 0.042724609375, 0.02560475841164589, -1.6816301345825195, 0.06513944268226624, 1.5604433718146742, 0.20892038324731743, 92.02277911702544, 9362.0, 34078.0, 35388.0, 9362.0, 8.271075248718262
391044, -0.6123178005218506, -0.15591944754123688, -9.32468318939209, 0.0, 0.0, -220.79641723632812, 0.0, 0.0, 0.04119873046875, 0.025598984211683273, -1.681636929512024, 0.06516097486019135, 1.5578249329573817, 0.2136209922751675, 92.01929195392339, 9362.0, 34078.0, 35388.0, 9362.0, 8.271075248718262
391054, -0.6098184585571289, -0.15669167041778564, -9.32653522491455, 0.0, 0.0, -220.7957763671875, 0.0, 0.0, 0.0640869140625, 0.025643832981586456, -1.681639552116394, 0.06516913324594498, 1.541663154734238, 0.21466490519614467, 91.99214188168233, 9362.0, 34078.0, 35388.0, 9362.0, 8.271075248718262
391064, -0.6113605499267578, -0.15688927471637726, -9.3258638381958, 0.0, 0.0, -220.79513549804688, 0.0, 0.0, 0.0640869140625, 0.025605028495192528, -1.6816272735595703, 0.06514301151037216, 1.5579071724796225, 0.20680351125417928, 92.0197403060029, 9362.0, 34078.0, 35388.0, 9362.0, 8.271075248718262
391074, -0.610505223274231, -0.15723849833011627, -9.325652122497559, 0.0, 0.0, -220.79461669921875, 0.0, 0.0, 0.0518798828125, 0.025596313178539276, -1.681634783744812, 0.06512687355279922, 1.5611958807246742, 0.20899263715395477, 92.01582038080464, 9362.0, 34078.0, 35388.0, 9362.0, 8.271075248718262
391084, -0.6114365458488464, -0.15800033509731293, -9.324782371520996, 0.0, 0.0, -220.79409790039062, 0.0, 0.0, 0.0518798828125, 0.025594128295779228, -1.6816251277923584, 0.06514256447553635, 1.5575322300071262, 0.2086265431588572, 92.0232280091766, 9362.0, 34078.0, 35388.0, 9362.0, 8.271075248718262
391094, -0.6099236011505127, -0.15654073655605316, -9.325528144836426, 0.0, 0.0, -220.79373168945312, 0.0, 0.0, 0.03662109375, 0.025602836161851883, -1.6816322803497314, 0.06516607105731964, 1.5548149606916206, 0.21406588691019124, 92.0125478468372, 9362.0, 34078.0, 35388.0, 9362.0, 8.271075248718262
391104, -0.610538899898529, -0.15497826039791107, -9.326824188232422, 0.0, 0.0, -220.79336547851562, 0.0, 0.0, 0.03662109375, 0.025604411959648132, -1.681605577468872, 0.06516421586275101, 1.5609001737603687, 0.2087937382146663, 92.02422280496971, 9362.0, 34078.0, 35388.0, 9362.0, 8.271075248718262
391114, -0.6099387407302856, -0.15460968017578125, -9.327756881713867, 0.0, 0.0, -220.7928466796875, 0.0, 0.0, 0.0518798828125, 0.02559301257133484, -1.6816354990005493, 0.06512244045734406, 1.5560820068535592, 0.20611522726440512, 92.02108954903996, 9362.0, 34078.0, 35388.0, 9362.0, 8.271075248718262
391124, -0.609481692314148, -0.1547662913799286, -9.328207969665527, 0.0, 0.0, -220.79232788085938, 0.0, 0.0, 0.0518798828125, 0.025600386783480644, -1.6816227436065674, 0.06513684242963791, 1.5539759952603192, 0.21230673331260164, 92.02231437596448, 9362.0, 34078.0, 35388.0, 9362.0, 8.271075248718262
391134, -0.6109334826469421, -0.1566416323184967, -9.325730323791504, 0.0, 0.0, -220.7919464111328, 0.0, 0.0, 0.03814697265625, 0.02560058981180191, -1.6816357374191284, 0.0651421844959259, 1.5606355972160446, 0.2114986383054145, 92.01582925874611, 9362.0, 34078.0, 35388.0, 9362.0, 8.271075248718262
391144, -0.6093660593032837, -0.1567200869321823, -9.326099395751953, 0.0, 0.0, -220.79156494140625, 0.0, 0.0, 0.03814697265625, 0.025602130219340324, -1.6816295385360718, 0.06515426933765411, 1.5578728870840086, 0.2116409412244593, 92.02109113823184, 9362.0, 34078.0, 35388.0, 9362.0, 8.271075248718262
391154, -0.6106693148612976, -0.1547958105802536, -9.326007843017578, 0.0, 0.0, -220.79107666015625, 0.0, 0.0, 0.048828125, 0.025554509833455086, -1.681617021560669, 0.06517020612955093, 1.5622815042960507, 0.21231219166745063, 92.04444268030062, 9362.0, 34078.0, 35388.0, 9362.0, 8.271075248718262
391164, -0.6098381876945496, -0.15185405313968658, -9.328974723815918, 0.0, 0.0, -220.79058837890625, 0.0, 0.0, 0.048828125, 0.025613218545913696, -1.6816296577453613, 0.0651596263051033, 1.554544069539274, 0.20772850799332332, 92.01885224486489, 9362.0, 34078.0, 35388.0, 9362.0, 8.271075248718262
391174, -0.6085871458053589, -0.15475668013095856, -9.330121994018555, 0.0, 0.0, -220.7899932861328, 0.0, 0.0, 0.05950927734375, 0.025604646652936935, -1.6816432476043701, 0.06513755768537521, 1.5624347547363284, 0.20273548892456006, 92.01942341286875, 9362.0, 34078.0, 35388.0, 9362.0, 8.271075248718262
391184, -0.6084165573120117, -0.1542748361825943, -9.329187393188477, 0.0, 0.0, -220.78941345214844, 0.0, 0.0, 0.0579833984375, 0.02554836869239807, -1.6816401481628418, 0.06511955708265305, 1.5609551211697406, 0.20766522512835195, 92.04404308936216, 9362.0, 34078.0, 35388.0, 9362.0, 8.271075248718262
391194, -0.6081475615501404, -0.15465131402015686, -9.33065414428711, 0.0, 0.0, -220.7889404296875, 0.0, 0.0, 0.04730224609375, 0.025596681982278824, -1.6816341876983643, 0.06514514982700348, 1.5565235699100197, 0.21236568145326373, 92.02342659082491, 9362.0, 34078.0, 35388.0, 9362.0, 8.271075248718262
391204, -0.6092866063117981, -0.15561334788799286, -9.330343246459961, 0.0, 0.0, -220.78846740722656, 0.0, 0.0, 0.04730224609375, 0.02561483532190323, -1.6816335916519165, 0.06514872610569, 1.5566807623599614, 0.20693993122819165, 92.02011172275635, 9362.0, 34078.0, 35388.0, 9362.0, 8.271075248718262
391214, -0.6091103553771973, -0.15500888228416443, -9.333422660827637, 0.0, 0.0, -220.7881317138672, 0.0, 0.0, 0.0335693359375, 0.025601845234632492, -1.6816353797912598, 0.06512804329395294, 1.5552840160524917, 0.20386044751739973, 92.01989286341401, 9362.0, 34078.0, 35388.0, 9362.0, 8.271075248718262
