timeTick, roll, pitch, yaw, stateX, stateY, stateZ, stateVX, stateVY, stateVZ, otX0, otY0, otZ0, otRoll0, otPitch0, otYaw0, motor1, motor2, motor3, motor4, voltage, roll rate, pitch rate, yaw rate
401049, 0.0, 0.0, 0.0, 0, 0, 0, 0, 0, 0, 0, 0, 0, 0, 0, 0, 0, 0, 0, 0, 0, 0, 0, 0
401059, 0.0005938365939073265, -0.0022338861599564552, 0.000497230386827141, 0.0, 0.0, 2.439483068883419e-07, 1.9022605712848417e-09, -5.056615681731103e-10, 4.878988329437561e-05, 0, 0, 0, 0, 0, 0, 9362.0, 34078.0, 35388.0, 9362.0, 7.9537200927734375, -0.020530585199594498, 0.46789637207984924, 0.00646729301661253
401069, -7.921805809019133e-05, -0.006542330142110586, 0.001750620431266725, 1.9141916496323574e-08, -5.088331089808662e-09, 7.029157131910324e-07, 3.82609596272232e-06, -1.017140448311693e-06, 4.3378495320212096e-05, 0, 0, 0, 0, 0, 0, 9362.0, 34078.0, 35388.0, 9362.0, 7.9537200927734375, -0.10009805113077164, 0.015406079590320587, -0.25122860074043274
401079, -0.0003287451690994203, -0.008141277357935905, 0.0020493539050221443, 1.1347606232448015e-07, -1.4579059737229727e-08, 1.708103809505701e-06, 1.5043932762637269e-05, -8.804472031442856e-07, 0.00015805444854777306, 0, 0, 0, 0, 0, 0, 9362.0, 34078.0, 35388.0, 9362.0, 7.9537200927734375, -0.19909928739070892, -0.32848188281059265, 0.05594518408179283
401089, -0.0018512081587687135, -0.007281824946403503, 0.0010599090019240975, 3.336583063173748e-07, -2.0564815628176802e-08, 3.617315087467432e-06, 2.89915351459058e-05, -3.1518777632300043e-07, 0.00022418862499762326, 0, 0, 0, 0, 0, 0, 9362.0, 34078.0, 35388.0, 9362.0, 7.9537200927734375, -0.036032237112522125, 0.23468691110610962, 0.039387866854667664
401099, -0.0017712627304717898, -0.006669813301414251, 7.584859122289345e-05, 6.859942232040339e-07, -7.846744587425292e-09, 6.5059284679591656e-06, 4.147431900491938e-05, 2.8584065603354247e-06, 0.00035393305006437004, 0, 0, 0, 0, 0, 0, 9362.0, 34078.0, 35388.0, 9362.0, 7.9537200927734375, 0.014866511337459087, 0.19969749450683594, 0.14953133463859558
401109, -0.0006906432099640369, -0.00940227136015892, -0.0006183241493999958, 1.1578624707908602e-06, 3.5907742557128586e-08, 1.0266725439578295e-05, 5.2901505114277825e-05, 5.891509772482095e-06, 0.0003986263764090836, 0, 0, 0, 0, 0, 0, 9362.0, 34078.0, 35388.0, 9362.0, 7.9537200927734375, 0.03742845356464386, 0.1592705398797989, 0.04985163360834122
401119, -7.28980521671474e-05, -0.011116820387542248, 0.00043495584395714104, 1.7674872196948854e-06, 1.0074313649965916e-07, 1.4972698409110308e-05, 6.902773748151958e-05, 7.07430854163249e-06, 0.0005429681041277945, 0, 0, 0, 0, 0, 0, 9362.0, 34078.0, 35388.0, 9362.0, 7.9537200927734375, 0.051731280982494354, -0.20628602802753448, 0.011231604032218456
401129, 0.0006579291075468063, -0.009652169421315193, -0.001972259022295475, 2.5529664071655134e-06, 1.7211121416949027e-07, 2.0568957552313805e-05, 8.806724508758634e-05, 7.198078947112663e-06, 0.0005766776157543063, 0, 0, 0, 0, 0, 0, 9362.0, 34078.0, 35388.0, 9362.0, 7.9537200927734375, 0.13445332646369934, -0.01476720068603754, -0.07494775205850601
401139, 0.0011974443914368749, -0.008469240739941597, -0.0027286477852612734, 3.5161972391506424e-06, 2.38461666413059e-07, 2.5906949304044247e-05, 0.00010458067845320329, 6.072595624573296e-06, 0.0004913219017907977, 0, 0, 0, 0, 0, 0, 9362.0, 34078.0, 35388.0, 9362.0, 7.9537200927734375, 0.08041892945766449, -0.26361018419265747, -0.08155734091997147
401149, 0.001103361719287932, -0.008003690280020237, -0.002654262585565448, 4.63444030174287e-06, 2.889425445573579e-07, 3.0364724807441235e-05, 0.0001190686525660567, 4.023453129775589e-06, 0.0004006345116067678, 0, 0, 0, 0, 0, 0, 9362.0, 34078.0, 35388.0, 9362.0, 7.9537200927734375, -0.1198560893535614, 0.12507924437522888, -0.06358914822340012
401159, 0.0006780074327252805, -0.0070956130512058735, -0.0035068371798843145, 5.893642992305104e-06, 3.1972848546502064e-07, 3.4356489777565e-05, 0.00013277186371851712, 2.1335108613129705e-06, 0.00039811545866541564, 0, 0, 0, 0, 0, 0, 9362.0, 34078.0, 35388.0, 9362.0, 7.9537200927734375, -0.25068193674087524, 0.15968972444534302, -0.08067795634269714
401169, 0.00021206845121923834, -0.007452455349266529, -0.0032665228936821222, 7.2820635068637785e-06, 3.3525958542668377e-07, 3.799790283665061e-05, 0.0001449118717573583, 9.72210727923084e-07, 0.0003305534482933581, 0, 0, 0, 0, 0, 0, 9362.0, 34078.0, 35388.0, 9362.0, 7.9537200927734375, -0.08364691585302353, 0.053228214383125305, 0.055279240012168884
401179, 0.0004638478858396411, -0.008041306398808956, -0.0023360673803836107, 8.794947461865377e-06, 3.4316352071073197e-07, 4.1044841054826975e-05, 0.00015766447177156806, 6.090108968237473e-07, 0.0002792220620904118, 0, 0, 0, 0, 0, 0, 9362.0, 34078.0, 35388.0, 9362.0, 7.9537200927734375, 0.20173852145671844, 0.2688707709312439, 0.17081491649150848
401189, 0.0009189011179842055, -0.009744714014232159, -0.0009221328073181212, 1.044040618580766e-05, 3.4528139281064796e-07, 4.3651030864566565e-05, 0.00017142623255494982, -1.8480260166597873e-07, 0.00024240180209744722, 0, 0, 0, 0, 0, 0, 9362.0, 34078.0, 35388.0, 9362.0, 7.9537200927734375, -0.04693334177136421, 0.11966013163328171, 0.19011007249355316
401199, 0.0009664380340836942, -0.01257399283349514, 0.0005054845241829753, 1.2238199815328699e-05, 3.3555522804817883e-07, 4.671374335885048e-05, 0.0001881389325717464, -1.760123836902494e-06, 0.00037054269341751933, 0, 0, 0, 0, 0, 0, 9362.0, 34078.0, 35388.0, 9362.0, 7.9537200927734375, 0.04370177164673805, 0.21890397369861603, -0.26037803292274475
401209, 0.0013753053499385715, -0.013461723923683167, -0.0014354983577504754, 1.4227095562091563e-05, 3.0969198405728093e-07, 4.979223012924194e-05, 0.00020963826682418585, -3.412359546928201e-06, 0.00024554491392336786, 0, 0, 0, 0, 0, 0, 9362.0, 34078.0, 35388.0, 9362.0, 7.9537200927734375, -0.2743494510650635, -0.007247458677738905, 0.0433659628033638
401219, 0.0012948729563504457, -0.01233035046607256, -0.0008081385749392211, 1.6438692910014652e-05, 2.637946181494044e-07, 5.212740506976843e-05, 0.00023268183576874435, -5.766894446423976e-06, 0.00022189150331541896, 0, 0, 0, 0, 0, 0, 9362.0, 34078.0, 35388.0, 9362.0, 7.9537200927734375, 0.07943663001060486, 0.02944357320666313, 0.3836057484149933
401229, 0.00021178531460464, -0.01308099552989006, 0.0012307062279433012, 1.887116741272621e-05, 1.9502866166476451e-07, 5.480326944962144e-05, 0.00025381441810168326, -7.983810974110384e-06, 0.000313673255732283, 0, 0, 0, 0, 0, 0, 9362.0, 34078.0, 35388.0, 9362.0, 7.9537200927734375, 0.06694212555885315, 0.18467332422733307, -0.3871298134326935
401239, 0.0012354162754490972, -0.013770075514912605, 0.0005102473660372198, 2.1521307644434273e-05, 1.1337971272951108e-07, 5.799083737656474e-05, 0.00027621377375908196, -8.346449249074794e-06, 0.000324220338370651, 0, 0, 0, 0, 0, 0, 9362.0, 34078.0, 35388.0, 9362.0, 7.9537200927734375, 0.1870669424533844, 0.5149737000465393, 0.4711245000362396
401249, 0.0016793310642242432, -0.017138592898845673, 0.0023597455583512783, 2.4401313567068428e-05, 1.9341420909313456e-08, 6.117013981565833e-05, 0.0002997868577949703, -1.0460355042596348e-05, 0.0003120456822216511, 0, 0, 0, 0, 0, 0, 9362.0, 34078.0, 35388.0, 9362.0, 7.9537200927734375, 0.2294968068599701, 0.10818763077259064, -0.2169518619775772
401259, 0.002551562851294875, -0.01992969587445259, 0.003433231031522155, 2.75459296972258e-05, -9.963511615751486e-08, 6.437755655497313e-05, 0.0003291372850071639, -1.3334674804355018e-05, 0.00032982416450977325, 0, 0, 0, 0, 0, 0, 9362.0, 34078.0, 35388.0, 9362.0, 7.9537200927734375, -0.16030924022197723, 0.11023779958486557, 0.0350586362183094
401269, 0.0025682502891868353, -0.022506965324282646, 0.0036117073614150286, 3.100775575148873e-05, -2.547941448938218e-07, 6.720359669998288e-05, 0.0003632235457189381, -1.7696997019811533e-05, 0.00023577758111059666, 0, 0, 0, 0, 0, 0, 9362.0, 34078.0, 35388.0, 9362.0, 7.9537200927734375, 0.08641462028026581, 0.11622292548418045, -0.11079972982406616
401279, 0.0018980310996994376, -0.023036276921629906, 0.0024948955979198217, 3.483270847937092e-05, -4.537425297712616e-07, 6.965489592403173e-05, 0.0004017670580651611, -2.2093210645834915e-05, 0.0002548652410041541, 0, 0, 0, 0, 0, 0, 9362.0, 34078.0, 35388.0, 9362.0, 7.9537200927734375, 0.08786550164222717, -0.12720368802547455, -0.1303177922964096
401289, 0.0018653706647455692, -0.02153698168694973, 0.0008861521491780877, 3.9048001781338826e-05, -6.909486955919419e-07, 7.322721648961306e-05, 0.0004412861308082938, -2.5349014322273433e-05, 0.0004600000975187868, 0, 0, 0, 0, 0, 0, 9362.0, 34078.0, 35388.0, 9362.0, 7.9537200927734375, -0.17883293330669403, -0.010599995031952858, 0.09362078458070755
401299, 0.0007981117232702672, -0.02103603258728981, 0.00276746298186481, 4.364547203294933e-05, -9.604254955775104e-07, 7.845473010092974e-05, 0.000478207366541028, -2.854279773600865e-05, 0.0005858990480192006, 0, 0, 0, 0, 0, 0, 9362.0, 34078.0, 35388.0, 9362.0, 7.9537200927734375, -0.03700140491127968, -0.19824039936065674, -0.2705903947353363
401309, 0.0011586645850911736, -0.020679593086242676, 0.0021592306438833475, 4.860790795646608e-05, -1.2526877526397584e-06, 8.506723679602146e-05, 0.0005142791196703911, -2.991099245264195e-05, 0.0007370025850832462, 0, 0, 0, 0, 0, 0, 9362.0, 34078.0, 35388.0, 9362.0, 7.9537200927734375, 0.18056447803974152, -0.022480249404907227, 0.1490827202796936
401319, 0.0005254994030110538, -0.02095179446041584, 0.0021149704698473215, 5.392806633608416e-05, -1.5617287090208265e-06, 9.335571667179465e-05, 0.0005497534293681383, -3.1895189749775454e-05, 0.0009210887365043163, 0, 0, 0, 0, 0, 0, 9362.0, 34078.0, 35388.0, 9362.0, 7.9537200927734375, -0.02400142326951027, -0.03764643147587776, 0.0652499571442604
401329, 0.0009731524623930454, -0.01956513151526451, 0.0014461325481534004, 5.960517228231765e-05, -1.8851778804673813e-06, 0.00010312703670933843, 0.0005856648203916848, -3.279593147453852e-05, 0.0010335700353607535, 0, 0, 0, 0, 0, 0, 9362.0, 34078.0, 35388.0, 9362.0, 7.9537200927734375, -0.10496658086776733, -0.14833791553974152, -0.174221470952034
401339, 0.0015332417096942663, -0.021759746596217155, 0.00052535196300596, 6.562931957887486e-05, -2.2214644559426233e-06, 0.00011348375119268894, 0.0006191652501001954, -3.446194023126736e-05, 0.0010381584288552403, 0, 0, 0, 0, 0, 0, 9362.0, 34078.0, 35388.0, 9362.0, 7.9537200927734375, -0.07861848920583725, -0.007658856920897961, -0.253932386636734
401349, 0.0007383146439678967, -0.022300221025943756, -0.000160146490088664, 7.200704567367211e-05, -2.579193278506864e-06, 0.0001233098446391523, 0.0006563784554600716, -3.7085777876200154e-05, 0.0009274501353502274, 0, 0, 0, 0, 0, 0, 9362.0, 34078.0, 35388.0, 9362.0, 7.9537200927734375, 0.07995975762605667, 0.1872776597738266, 0.16664263606071472
401359, 0.0017292601987719536, -0.024276185780763626, 0.0004136853967793286, 7.876174640841782e-05, -2.956372327389545e-06, 0.00013259716797620058, 0.0006945614004507661, -3.83497063012328e-05, 0.0009304095874540508, 0, 0, 0, 0, 0, 0, 9362.0, 34078.0, 35388.0, 9362.0, 7.9537200927734375, -0.06954459100961685, -0.06512682884931564, 0.05793973430991173
401369, 0.001643708674237132, -0.02457629330456257, 0.000610515009611845, 8.591519144829363e-05, -3.354672344357823e-06, 0.00014191586524248123, 0.0007361276657320559, -4.131012974539772e-05, 0.0009337303345091641, 0, 0, 0, 0, 0, 0, 9362.0, 34078.0, 35388.0, 9362.0, 7.9537200927734375, -0.02454562485218048, 0.25071966648101807, -0.20872564613819122
401379, 0.0014270143583416939, -0.024822479113936424, 0.0005932796048000455, 9.348684397991747e-05, -3.781841769523453e-06, 0.00015121483011171222, 0.0007782032480463386, -4.4123808038420975e-05, 0.0009264464024454355, 0, 0, 0, 0, 0, 0, 9362.0, 34078.0, 35388.0, 9362.0, 7.9537200927734375, 0.015309746377170086, 0.17168854176998138, 0.1656845211982727
401389, 0.0008717184537090361, -0.024415794759988785, 0.00043967494275420904, 0.00010148195724468678, -4.235327651258558e-06, 0.00016182544641196728, 0.0008208183571696281, -4.657086174120195e-05, 0.0011960607953369617, 0, 0, 0, 0, 0, 0, 9362.0, 34078.0, 35388.0, 9362.0, 7.9537200927734375, 0.23830416798591614, 0.1145133450627327, -0.1828078329563141
401399, 0.0008544884622097015, -0.02583940140902996, -0.0008471178589388728, 0.00010989975999109447, -4.708518645202275e-06, 0.00017519871471449733, 0.000862749817315489, -4.8068224714370444e-05, 0.001478980528190732, 0, 0, 0, 0, 0, 0, 9362.0, 34078.0, 35388.0, 9362.0, 7.9537200927734375, -0.08934440463781357, -0.2622791826725006, -0.05669517442584038
401409, -1.7272519471589476e-05, -0.024356475099921227, -0.0009058031137101352, 0.00011874895426444709, -5.196535767026944e-06, 0.0001910823048092425, 0.0009070842643268406, -4.953188181389123e-05, 0.0016981334192678332, 0, 0, 0, 0, 0, 0, 9362.0, 34078.0, 35388.0, 9362.0, 7.9537200927734375, -0.3930966258049011, 0.5970199704170227, 0.14783169329166412
401419, 0.0007608702871948481, -0.027556968852877617, -0.0001692768419161439, 0.00012802857963833958, -5.691709702659864e-06, 0.0002086897729896009, 0.0009488469804637134, -4.950410220772028e-05, 0.0018237413605675101, 0, 0, 0, 0, 0, 0, 9362.0, 34078.0, 35388.0, 9362.0, 7.9537200927734375, -0.1360369473695755, 0.2829029858112335, -0.005581342615187168
401429, 0.0004924939130432904, -0.028908196836709976, -0.0008511217311024666, 0.00013775310071650892, -6.193269200593932e-06, 0.00022722117137163877, 0.0009960589231923223, -5.080804476165213e-05, 0.0018829324981197715, 0, 0, 0, 0, 0, 0, 9362.0, 34078.0, 35388.0, 9362.0, 7.9537200927734375, -0.1991986334323883, -0.15857559442520142, -0.04295257478952408
401439, 0.0002480896364431828, -0.02966519072651863, -5.689478712156415e-06, 0.00014796059986110777, -6.705559826514218e-06, 0.00024492183001711965, 0.0010454377625137568, -5.165030597709119e-05, 0.0016575837507843971, 0, 0, 0, 0, 0, 0, 9362.0, 34078.0, 35388.0, 9362.0, 7.9537200927734375, 0.09881045669317245, -0.38763490319252014, 0.14160318672657013
401449, -0.0002909927279688418, -0.028368551284074783, -0.0003722974215634167, 0.0001586687285453081, -7.224185083032353e-06, 0.00026108563179150224, 0.0010961887892335653, -5.2075822168262675e-05, 0.0015755712520331144, 0, 0, 0, 0, 0, 0, 9362.0, 34078.0, 35388.0, 9362.0, 7.9537200927734375, 0.15512920916080475, 0.13005125522613525, -0.26536092162132263
401459, 0.00028152746381238103, -0.030043862760066986, -4.4827604142483324e-05, 0.0001698737614788115, -7.742451089143287e-06, 0.000277428247500211, 0.0011448223376646638, -5.157820851309225e-05, 0.0016933247679844499, 0, 0, 0, 0, 0, 0, 9362.0, 34078.0, 35388.0, 9362.0, 7.9537200927734375, 0.05245203524827957, -0.16662687063217163, -0.02354593388736248
401469, -0.00013303195009939373, -0.028505569323897362, -0.0008022884139791131, 0.0001815800933400169, -8.260652066383045e-06, 0.0002960798447020352, 0.0011964335571974516, -5.206015339354053e-05, 0.002037371974438429, 0, 0, 0, 0, 0, 0, 9362.0, 34078.0, 35388.0, 9362.0, 7.9537200927734375, 0.07611510157585144, -0.043150875717401505, -0.10278256982564926
401479, 0.0010083751985803246, -0.029326189309358597, -0.0018555900314822793, 0.00019378878641873598, -8.780116331763566e-06, 0.0003171031130477786, 0.0012453064555302262, -5.183625398785807e-05, 0.0021676619071513414, 0, 0, 0, 0, 0, 0, 9362.0, 34078.0, 35388.0, 9362.0, 7.9537200927734375, 0.1462203860282898, 0.0003677019558381289, -0.20253242552280426
401489, 0.0009694644249975681, -0.029148930683732033, -0.002057865494862199, 0.0002064927975879982, -9.307115760748275e-06, 0.0003385528107173741, 0.0012954948469996452, -5.3563795518130064e-05, 0.002122669480741024, 0, 0, 0, 0, 0, 0, 9362.0, 34078.0, 35388.0, 9362.0, 7.9537200927734375, 0.029197653755545616, 0.03343835100531578, 0.19722312688827515
401499, 0.0015646847896277905, -0.02834388241171837, -0.0026037299539893866, 0.00021969748195260763, -9.851068170974031e-06, 0.0003601564676500857, 0.0013454400468617678, -5.522801438928582e-05, 0.002198445377871394, 0, 0, 0, 0, 0, 0, 9362.0, 34078.0, 35388.0, 9362.0, 7.9537200927734375, -0.113504558801651, -0.17307864129543304, 0.20473900437355042
401509, 0.0033117621205747128, -0.0282962117344141, -0.0009275912307202816, 0.0002333951269974932, -1.0416786608402617e-05, 0.00038333493284881115, 0.0013940875651314855, -5.792162482975982e-05, 0.002437634626403451, 0, 0, 0, 0, 0, 0, 9362.0, 34078.0, 35388.0, 9362.0, 7.9537200927734375, 0.07383798807859421, -0.1475677341222763, 0.01642550714313984
401519, 0.0026953809428960085, -0.029039394110441208, 9.050879452843219e-05, 0.0002475784858688712, -1.1024388186342549e-05, 0.00040822639130055904, 0.001442587818019092, -6.359668623190373e-05, 0.002541041700169444, 0, 0, 0, 0, 0, 0, 9362.0, 34078.0, 35388.0, 9362.0, 7.9537200927734375, -0.13747993111610413, 0.0950881838798523, 0.22151024639606476
401529, 0.0031626783311367035, -0.029256023466587067, -0.0006925953202880919, 0.00026225284091196954, -1.1683418961183634e-05, 0.00043340882984921336, 0.0014922848204150796, -6.820971611887217e-05, 0.0024958199355751276, 0, 0, 0, 0, 0, 0, 9362.0, 34078.0, 35388.0, 9362.0, 7.9537200927734375, 0.05378348007798195, 0.16215701401233673, -0.12886880338191986
401539, 0.0030082552693784237, -0.028255660086870193, 5.741020504501648e-05, 0.00027742632664740086, -1.2392614735290408e-05, 0.00045874330680817366, 0.0015424132579937577, -7.36286528990604e-05, 0.002571461256593466, 0, 0, 0, 0, 0, 0, 9362.0, 34078.0, 35388.0, 9362.0, 7.9537200927734375, -0.007517579942941666, -0.1412736177444458, -0.06414087116718292
401549, 0.0026568721514195204, -0.030458543449640274, 0.0006897280691191554, 0.0002930928603745997, -1.3154707630746998e-05, 0.0004854698199778795, 0.0015908995410427451, -7.878809265093878e-05, 0.0027742269448935986, 0, 0, 0, 0, 0, 0, 9362.0, 34078.0, 35388.0, 9362.0, 7.9537200927734375, -0.07971978932619095, 0.2617257535457611, 0.04623028263449669
401559, 0.002351352944970131, -0.02984759397804737, 0.0021727606654167175, 0.0003092631814070046, -1.3965381185698789e-05, 0.0005142994923517108, 0.0016431632684543729, -8.334404265042394e-05, 0.0029920879751443863, 0, 0, 0, 0, 0, 0, 9362.0, 34078.0, 35388.0, 9362.0, 7.9537200927734375, 0.040642451494932175, -0.03606926277279854, 0.20962712168693542
401569, 0.0025575198233127594, -0.031082522124052048, 0.0034802162554115057, 0.00032595073571428657, -1.4818972886132542e-05, 0.000544988492038101, 0.0016943509690463543, -8.737370080780238e-05, 0.003146104048937559, 0, 0, 0, 0, 0, 0, 9362.0, 34078.0, 35388.0, 9362.0, 7.9537200927734375, 0.08745298534631729, 0.20466317236423492, 0.04317383095622063
401579, 0.0022109581623226404, -0.03162560611963272, 0.0026710755191743374, 0.0003431605000514537, -1.5714602341176942e-05, 0.0005767543916590512, 0.00174760352820158, -9.175248123938218e-05, 0.003207460744306445, 0, 0, 0, 0, 0, 0, 9362.0, 34078.0, 35388.0, 9362.0, 7.9537200927734375, 0.031768690794706345, 0.05460944399237633, -0.02712775394320488
401589, 0.002262362977489829, -0.034480366855859756, 0.0031166663393378258, 0.0003609071718528867, -1.6651036276016384e-05, 0.0006086605717428029, 0.0018017316469922662, -9.553373092785478e-05, 0.003174147568643093, 0, 0, 0, 0, 0, 0, 9362.0, 34078.0, 35388.0, 9362.0, 7.9537200927734375, 0.03181307017803192, 0.2086886614561081, 0.029322341084480286
401599, 0.0026248248759657145, -0.03581348806619644, 0.003482770873233676, 0.0003792202041950077, -1.7625759937800467e-05, 0.0006412887014448643, 0.0018608790123835206, -9.941180906025693e-05, 0.0033518830314278603, 0, 0, 0, 0, 0, 0, 9362.0, 34078.0, 35388.0, 9362.0, 7.9537200927734375, 0.2696438431739807, -0.18326722085475922, 0.019000696018338203
401609, 0.0027424877043813467, -0.03809132054448128, 0.00420753238722682, 0.0003981359477620572, -1.8642356735654175e-05, 0.0006753724301233888, 0.0019222734263166785, -0.00010390685929451138, 0.003465267363935709, 0, 0, 0, 0, 0, 0, 9362.0, 34078.0, 35388.0, 9362.0, 7.9537200927734375, 0.07926975190639496, 0.20375299453735352, -0.14411623775959015
401619, 0.0022515919990837574, -0.03897108882665634, 0.004534875508397818, 0.0004176853399258107, -1.9704919395735487e-05, 0.000710878346581012, 0.0019876088481396437, -0.00010860399197554216, 0.0036363238468766212, 0, 0, 0, 0, 0, 0, 9362.0, 34078.0, 35388.0, 9362.0, 7.9537200927734375, 0.022930968552827835, -0.04924435541033745, -0.3331291675567627
401629, 0.0035284662153571844, -0.0390445701777935, 0.001670347759500146, 0.0004378953599371016, -2.081022466882132e-05, 0.0007476687314920127, 0.0020543921273201704, -0.0001124624177464284, 0.0037221447564661503, 0, 0, 0, 0, 0, 0, 9362.0, 34078.0, 35388.0, 9362.0, 7.9537200927734375, -0.23087437450885773, -0.059862468391656876, -0.019990235567092896
401639, 0.002770104445517063, -0.03926824778318405, 0.0015806587180122733, 0.00045877392403781414, -2.196507921325974e-05, 0.0007854411378502846, 0.002121318830177188, -0.00011850722512463108, 0.003832749556750059, 0, 0, 0, 0, 0, 0, 9362.0, 34078.0, 35388.0, 9362.0, 7.9537200927734375, -0.02254217304289341, 0.012823065742850304, 0.1974039226770401
401649, 0.0019640910904854536, -0.039250414818525314, 0.002562830923125148, 0.00048032321501523256, -2.317385224159807e-05, 0.0008236641879193485, 0.0021885388996452093, -0.00012324638373684138, 0.003812261624261737, 0, 0, 0, 0, 0, 0, 9362.0, 34078.0, 35388.0, 9362.0, 7.9537200927734375, -0.09597456455230713, 0.14608973264694214, 0.17110049724578857
401659, 0.0016744394088163972, -0.04015956073999405, 0.0021072919480502605, 0.000502545153722167, -2.4423141439910978e-05, 0.0008625704213045537, 0.002255852334201336, -0.00012661133951041847, 0.0039693862199783325, 0, 0, 0, 0, 0, 0, 9362.0, 34078.0, 35388.0, 9362.0, 7.9537200927734375, 0.02694513462483883, 0.10604509711265564, 0.09267553687095642
401669, 0.002206136006861925, -0.04077563434839249, 0.0036175758577883244, 0.0005254480056464672, -2.570359720266424e-05, 0.000902972707990557, 0.0023247136268764734, -0.0001294793764827773, 0.004111469257622957, 0, 0, 0, 0, 0, 0, 9362.0, 34078.0, 35388.0, 9362.0, 7.9537200927734375, -0.17554566264152527, 0.14634695649147034, -0.031716927886009216
401679, 0.001786729320883751, -0.0423053540289402, 0.0031739934347569942, 0.0005490441108122468, -2.701725134102162e-05, 0.0009439680143259466, 0.002394511131569743, -0.00013325203326530755, 0.004087985027581453, 0, 0, 0, 0, 0, 0, 9362.0, 34078.0, 35388.0, 9362.0, 7.9537200927734375, -0.02269330807030201, 0.06741373986005783, 0.13225983083248138
401689, 0.0011181033914908767, -0.04316117987036705, 0.0037374477833509445, 0.000573351455386728, -2.8365049729472958e-05, 0.0009849229827523232, 0.0024669566191732883, -0.00013630677131004632, 0.004103406332433224, 0, 0, 0, 0, 0, 0, 9362.0, 34078.0, 35388.0, 9362.0, 7.9537200927734375, 0.02213863842189312, 0.24653519690036774, -0.11444185674190521
401699, 0.0023104052525013685, -0.043722644448280334, 0.003387373173609376, 0.0005983909941278398, -2.9737677323282696e-05, 0.001026553101837635, 0.002540946938097477, -0.0001382215996272862, 0.00422300212085247, 0, 0, 0, 0, 0, 0, 9362.0, 34078.0, 35388.0, 9362.0, 7.9537200927734375, 0.06903707981109619, -0.11410799622535706, 0.20973168313503265
401709, 0.001429368625395, -0.043733641505241394, 0.003702797694131732, 0.0006241748342290521, -3.113965431111865e-05, 0.0010688784532248974, 0.0026158227119594812, -0.00014217302668839693, 0.00424245186150074, 0, 0, 0, 0, 0, 0, 9362.0, 34078.0, 35388.0, 9362.0, 7.9537200927734375, 0.13139353692531586, 0.45881223678588867, 0.30523204803466797
401719, 0.00200340966694057, -0.04568052291870117, 0.006039975676685572, 0.0006507079815492034, -3.2573614589637145e-05, 0.0011119518894702196, 0.00269080582074821, -0.00014461702085100114, 0.004372614435851574, 0, 0, 0, 0, 0, 0, 9362.0, 34078.0, 35388.0, 9362.0, 7.9537200927734375, 0.09346946328878403, 0.4594113230705261, -0.2515094578266144
401729, 0.0014987379545345902, -0.04713822901248932, 0.005648578982800245, 0.0006780074327252805, -3.4036907891277224e-05, 0.0011560990242287517, 0.0027690883725881577, -0.000148041668580845, 0.004457197152078152, 0, 0, 0, 0, 0, 0, 9362.0, 34078.0, 35388.0, 9362.0, 7.9537200927734375, 0.0959792509675026, -0.18897345662117004, -0.01969938352704048
401739, 0.0026637325063347816, -0.04732971265912056, 0.004542674869298935, 0.0007061020005494356, -3.5530119930626824e-05, 0.0012008590856567025, 0.002849828451871872, -0.0001506031258031726, 0.004495206754654646, 0, 0, 0, 0, 0, 0, 9362.0, 34078.0, 35388.0, 9362.0, 7.9537200927734375, -0.02824442833662033, 0.0577067993581295, -0.07953715324401855
401749, 0.00429292069748044, -0.046852800995111465, 0.0022112135775387287, 0.0007350054802373052, -3.705892595462501e-05, 0.0012458448763936758, 0.0029308705125004053, -0.00015516126586589962, 0.004502320662140846, 0, 0, 0, 0, 0, 0, 9362.0, 34078.0, 35388.0, 9362.0, 7.9537200927734375, -0.14108549058437347, 0.46098360419273376, -0.07281795889139175
401759, 0.003913273569196463, -0.0498938113451004, 0.0019009202951565385, 0.0007647157181054354, -3.8647314795525745e-05, 0.0012914238031953573, 0.003011187771335244, -0.0001625164004508406, 0.004613856319338083, 0, 0, 0, 0, 0, 0, 9362.0, 34078.0, 35388.0, 9362.0, 7.9537200927734375, -0.26808005571365356, 0.004699172917753458, 0.010172650218009949
401769, 0.0018910799408331513, -0.050036367028951645, 0.0006720504024997354, 0.0007952548330649734, -4.030597483506426e-05, 0.0013376916758716106, 0.0030966373160481453, -0.00016921642236411572, 0.004640109371393919, 0, 0, 0, 0, 0, 0, 9362.0, 34078.0, 35388.0, 9362.0, 7.9537200927734375, -0.010683076456189156, 0.08122625946998596, -0.12973114848136902
401779, 0.0014339485205709934, -0.05047005042433739, -0.00038196975947357714, 0.0008266493096016347, -4.201431147521362e-05, 0.001383781200274825, 0.0031822531018406153, -0.0001724532776279375, 0.004578155931085348, 0, 0, 0, 0, 0, 0, 9362.0, 34078.0, 35388.0, 9362.0, 7.9537200927734375, 0.1598154753446579, -0.10494618117809296, -0.029876839369535446
401789, 0.00223371759057045, -0.05212584510445595, -0.0012928731739521027, 0.0008589045610278845, -4.3751140765380114e-05, 0.0014302880736067891, 0.003268798580393195, -0.00017491605831310153, 0.004723598249256611, 0, 0, 0, 0, 0, 0, 9362.0, 34078.0, 35388.0, 9362.0, 7.9537200927734375, 0.20291590690612793, 0.10606928169727325, 0.22176195681095123
401799, 0.0035418651532381773, -0.051450490951538086, -0.0018069251673296094, 0.000892039155587554, -4.5519449486164376e-05, 0.0014779225457459688, 0.0033581184688955545, -0.00017874830518849194, 0.004803688731044531, 0, 0, 0, 0, 0, 0, 9362.0, 34078.0, 35388.0, 9362.0, 7.9537200927734375, 0.20653682947158813, 0.061821531504392624, -0.1348295509815216
401809, 0.00388041022233665, -0.051460184156894684, -0.0019671882037073374, 0.0009260607766918838, -4.733726382255554e-05, 0.001525917905382812, 0.003446202725172043, -0.000184815056854859, 0.004795758053660393, 0, 0, 0, 0, 0, 0, 9362.0, 34078.0, 35388.0, 9362.0, 7.9537200927734375, -0.23688122630119324, -0.17293526232242584, 0.06992001086473465
401819, 0.0028732516802847385, -0.04885769262909889, -0.003386442782357335, 0.0009609637199901044, -4.9218677304452285e-05, 0.0015742836985737085, 0.00353438057936728, -0.0001914682798087597, 0.004877808969467878, 0, 0, 0, 0, 0, 0, 9362.0, 34078.0, 35388.0, 9362.0, 7.9537200927734375, 0.13166670501232147, 0.10958512127399445, -0.024136420339345932
401829, 0.0037687893491238356, -0.049497365951538086, -0.002892985474318266, 0.000996726448647678, -5.115802196087316e-05, 0.0016238379757851362, 0.003618167247623205, -0.00019640220853034407, 0.005033418536186218, 0, 0, 0, 0, 0, 0, 9362.0, 34078.0, 35388.0, 9362.0, 7.9537200927734375, 0.0762869194149971, -0.020842161029577255, -0.18424253165721893
401839, 0.0036149320658296347, -0.05086039751768112, -0.0020841907244175673, 0.0010333319660276175, -5.3154337365413085e-05, 0.0016743075102567673, 0.00370293902233243, -0.00020285981008782983, 0.005060884635895491, 0, 0, 0, 0, 0, 0, 9362.0, 34078.0, 35388.0, 9362.0, 7.9537200927734375, 0.022574512287974358, 0.048272352665662766, 0.20977827906608582
401849, 0.0032673052046447992, -0.05143967643380165, -0.0004326352209318429, 0.001070796512067318, -5.521387720364146e-05, 0.0017245779745280743, 0.003789959941059351, -0.00020904597477056086, 0.004993573296815157, 0, 0, 0, 0, 0, 0, 9362.0, 34078.0, 35388.0, 9362.0, 7.9537200927734375, -0.0475723072886467, 0.07114596664905548, 0.21892087161540985
401859, 0.0024166253861039877, -0.05263445898890495, 0.0015470953658223152, 0.001109135220758617, -5.7332232245244086e-05, 0.001773135969415307, 0.003877780167385936, -0.000214626154047437, 0.004718394950032234, 0, 0, 0, 0, 0, 0, 9362.0, 34078.0, 35388.0, 9362.0, 7.9537200927734375, -0.009906889870762825, 0.018784072250127792, -0.33988046646118164
401869, 0.0029449397698044777, -0.053135938942432404, -5.544460509554483e-05, 0.00114836310967803, -5.949914702796377e-05, 0.001819757861085236, 0.003967795055359602, -0.00021875815582461655, 0.004606397356837988, 0, 0, 0, 0, 0, 0, 9362.0, 34078.0, 35388.0, 9362.0, 7.9537200927734375, -0.12238134443759918, -0.35581493377685547, 0.11656036972999573
401879, 0.0029599156696349382, -0.049125876277685165, 0.000634850817732513, 0.0011884967098012567, -6.171198765514418e-05, 0.001866689883172512, 0.004058922175318003, -0.00022380835434887558, 0.004780420567840338, 0, 0, 0, 0, 0, 0, 9362.0, 34078.0, 35388.0, 9362.0, 7.9537200927734375, 0.04200264438986778, -0.019725533202290535, 0.05758543685078621
401889, 0.002335756318643689, -0.048998910933732986, 0.0013382023898884654, 0.001229507033713162, -6.397543620551005e-05, 0.0019151080632582307, 0.004143139347434044, -0.00022887924569658935, 0.0049036117270588875, 0, 0, 0, 0, 0, 0, 9362.0, 34078.0, 35388.0, 9362.0, 7.9537200927734375, -0.04290425032377243, 0.2506798505783081, 0.1345846951007843
401899, 0.0026302372571080923, -0.05033072456717491, 0.0021149807143956423, 0.0012713574105873704, -6.628419214393944e-05, 0.001963571412488818, 0.004226933233439922, -0.00023287010844796896, 0.004789428319782019, 0, 0, 0, 0, 0, 0, 9362.0, 34078.0, 35388.0, 9362.0, 7.9537200927734375, -0.06529925018548965, 0.08303780853748322, 0.40086719393730164
401909, 0.0021252271253615618, -0.052016813308000565, 0.0042127701453864574, 0.00131405727006495, -6.863537419121712e-05, 0.0020110132172703743, 0.004313026554882526, -0.00023736384173389524, 0.0046993340365588665, 0, 0, 0, 0, 0, 0, 9362.0, 34078.0, 35388.0, 9362.0, 7.9537200927734375, 0.01905340701341629, 0.4311486482620239, -0.03511166572570801
401919, 0.0020378215704113245, -0.05479791760444641, 0.005508531350642443, 0.0013576324563473463, -7.102715608198196e-05, 0.0020575611852109432, 0.004402002319693565, -0.00024099084839690477, 0.004610633477568626, 0, 0, 0, 0, 0, 0, 9362.0, 34078.0, 35388.0, 9362.0, 7.9537200927734375, -0.12553240358829498, 0.27343645691871643, 0.19275180995464325
401929, 0.001349362195469439, -0.059038884937763214, 0.007290377747267485, 0.001402122201398015, -7.345448830164969e-05, 0.0021043354645371437, 0.004495964385569096, -0.0002444711572024971, 0.004744603298604488, 0, 0, 0, 0, 0, 0, 9362.0, 34078.0, 35388.0, 9362.0, 7.9537200927734375, 0.015899496152997017, -0.06683402508497238, -0.24888919293880463
401939, 0.00231539411470294, -0.06073237955570221, 0.005504677537828684, 0.001447587739676237, -7.591069879708812e-05, 0.002152219181880355, 0.004597141873091459, -0.00024677530745975673, 0.004832504782825708, 0, 0, 0, 0, 0, 0, 9362.0, 34078.0, 35388.0, 9362.0, 7.9537200927734375, -0.07964407652616501, -0.013091938570141792, 0.09746665507555008
401949, 0.0019408727530390024, -0.06070716306567192, 0.006328950636088848, 0.001494079944677651, -7.839826139388606e-05, 0.002201394410803914, 0.004701307043433189, -0.0002507339231669903, 0.005002937279641628, 0, 0, 0, 0, 0, 0, 9362.0, 34078.0, 35388.0, 9362.0, 7.9537200927734375, 0.06870915740728378, -0.031951725482940674, -0.31065991520881653
401959, 0.002076274948194623, -0.06137290224432945, 0.005786457564681768, 0.0015416145324707031, -8.092221833067015e-05, 0.0022531345020979643, 0.004805614706128836, -0.00025405886117368937, 0.00534545723348856, 0, 0, 0, 0, 0, 0, 9362.0, 34078.0, 35388.0, 9362.0, 7.9537200927734375, -0.01676962524652481, -0.3761628270149231, -0.1511085480451584
401969, 0.0019463690696284175, -0.05901770666241646, 0.004611501004546881, 0.0015901977894827724, -8.348059054696932e-05, 0.0023082206025719643, 0.004911032039672136, -0.0002576163678895682, 0.005672154016792774, 0, 0, 0, 0, 0, 0, 9362.0, 34078.0, 35388.0, 9362.0, 7.9537200927734375, -0.013270311988890171, -0.25705280900001526, 0.034316349774599075
401979, 0.0014599466230720282, -0.058871444314718246, 0.004135765600949526, 0.001639813999645412, -8.607339987065643e-05, 0.0023656024131923914, 0.00501221651211381, -0.00026094497297890484, 0.005804584827274084, 0, 0, 0, 0, 0, 0, 9362.0, 34078.0, 35388.0, 9362.0, 7.9537200927734375, 0.04683546721935272, 0.008855226449668407, -0.1474846750497818
401989, 0.00286486791446805, -0.0586136169731617, 0.0025399045553058386, 0.001690440229140222, -8.869531302480027e-05, 0.002423745347186923, 0.005113034509122372, -0.0002634411212056875, 0.005824398715049028, 0, 0, 0, 0, 0, 0, 9362.0, 34078.0, 35388.0, 9362.0, 7.9537200927734375, 0.06502062827348709, 0.04051928594708443, -0.4405243694782257
401999, 0.0033596763387322426, -0.059963349252939224, 3.876986011164263e-05, 0.0017420725198462605, -9.135423897532746e-05, 0.0024821823462843895, 0.00521343108266592, -0.0002683484635781497, 0.005863402504473925, 0, 0, 0, 0, 0, 0, 9362.0, 34078.0, 35388.0, 9362.0, 7.9537200927734375, -0.2622869908809662, -0.02783433347940445, -0.10938702523708344
402009, 0.0022827619686722755, -0.058964911848306656, -0.0011150987120345235, 0.0017947200685739517, -9.406648314325139e-05, 0.002540738321840763, 0.0053160828538239, -0.00027410214534029365, 0.005848194472491741, 0, 0, 0, 0, 0, 0, 9362.0, 34078.0, 35388.0, 9362.0, 7.9537200927734375, 0.009063039906322956, 0.2943066656589508, -0.33764660358428955
402019, 0.0023314119316637516, -0.06137872487306595, -0.00042787560960277915, 0.0018483854364603758, -9.682704694569111e-05, 0.002598951105028391, 0.005416983272880316, -0.00027800918905995786, 0.005794720724225044, 0, 0, 0, 0, 0, 0, 9362.0, 34078.0, 35388.0, 9362.0, 7.9537200927734375, -0.045230936259031296, -0.04181137681007385, 0.09818655252456665
402029, 0.0025636448990553617, -0.0594654381275177, -0.002616679761558771, 0.001903080614283681, -9.9627097370103e-05, 0.0026568046305328608, 0.0055220541544258595, -0.00028200497035868466, 0.005776388570666313, 0, 0, 0, 0, 0, 0, 9362.0, 34078.0, 35388.0, 9362.0, 7.9537200927734375, -0.07623457163572311, -0.1007939949631691, -0.29999202489852905
402039, 0.003072883002460003, -0.05811943858861923, -0.002900410210713744, 0.0019588095601648092, -0.00010246909369016066, 0.002713988535106182, 0.005623751785606146, -0.0002863932750187814, 0.00566079281270504, 0, 0, 0, 0, 0, 0, 9362.0, 34078.0, 35388.0, 9362.0, 7.9537200927734375, -0.0037345890887081623, 0.010785269550979137, -0.06307514756917953
402049, 0.0037324901204556227, -0.057001955807209015, -0.0031215061899274588, 0.0020155443344265223, -0.00010535933688515797, 0.0027702385559678078, 0.005723190028220415, -0.00029165533487685025, 0.00558961508795619, 0, 0, 0, 0, 0, 0, 9362.0, 34078.0, 35388.0, 9362.0, 7.9537200927734375, -0.06564575433731079, 0.1063748151063919, -0.044654861092567444
402059, 0.0038471755106002092, -0.058183398097753525, -0.0024986208882182837, 0.0020732644479721785, -0.00010830788960447535, 0.002826389856636524, 0.005820839200168848, -0.0002980536373797804, 0.005641054827719927, 0, 0, 0, 0, 0, 0, 9362.0, 34078.0, 35388.0, 9362.0, 7.9537200927734375, -0.008127854205667973, -0.05973721295595169, 0.09423612803220749
402069, 0.0028694940265268087, -0.05895783752202988, -0.0033396193757653236, 0.0021319712977856398, -0.00011132140934932977, 0.0028832508251070976, 0.005920551251620054, -0.0003046509809792042, 0.005731513258069754, 0, 0, 0, 0, 0, 0, 9362.0, 34078.0, 35388.0, 9362.0, 7.9537200927734375, -0.014131033793091774, -0.1945537030696869, -0.11468952149152756
402079, 0.003194845048710704, -0.059987880289554596, -0.004078329540789127, 0.0021916821133345366, -0.00011439254740253091, 0.0029412186704576015, 0.00602163327857852, -0.00030957849230617285, 0.005862464662641287, 0, 0, 0, 0, 0, 0, 9362.0, 34078.0, 35388.0, 9362.0, 7.9537200927734375, -0.003838561475276947, 0.04032985493540764, -0.023868480697274208
402089, 0.003177151083946228, -0.05997182056307793, -0.005869816057384014, 0.00225241226144135, -0.0001175157303805463, 0.003000060096383095, 0.0061243874952197075, -0.0003150615666527301, 0.005906202830374241, 0, 0, 0, 0, 0, 0, 9362.0, 34078.0, 35388.0, 9362.0, 7.9537200927734375, -0.015502076596021652, -0.28978440165519714, 0.04713112488389015
402099, 0.003345641540363431, -0.05958598107099533, -0.004688541870564222, 0.002314169891178608, -0.00012069361400790513, 0.0030593685805797577, 0.006227120757102966, -0.00032051262678578496, 0.005955882836133242, 0, 0, 0, 0, 0, 0, 9362.0, 34078.0, 35388.0, 9362.0, 7.9537200927734375, -0.024097874760627747, -0.1483553797006607, -0.1388823688030243
402109, 0.003415970830246806, -0.05781351774930954, -0.006646210327744484, 0.002376951277256012, -0.00012392742792144418, 0.0031190633308142424, 0.006329168565571308, -0.00032625437597744167, 0.005983469542115927, 0, 0, 0, 0, 0, 0, 9362.0, 34078.0, 35388.0, 9362.0, 7.9537200927734375, -0.03996081277728081, -0.02393607795238495, 0.089427649974823
402119, 0.003922380041331053, -0.05667969956994057, -0.006456934846937656, 0.002440738258883357, -0.00012721928942482919, 0.0031792044173926115, 0.006428215187042952, -0.0003321184776723385, 0.006045126356184483, 0, 0, 0, 0, 0, 0, 9362.0, 34078.0, 35388.0, 9362.0, 7.9537200927734375, -0.15912126004695892, -0.06785973161458969, -0.6059059500694275
402129, 0.003617206122726202, -0.05747123062610626, -0.009173856116831303, 0.0025055063888430595, -0.0001305741461692378, 0.003240299643948674, 0.006525388918817043, -0.0003388579352758825, 0.006174324080348015, 0, 0, 0, 0, 0, 0, 9362.0, 34078.0, 35388.0, 9362.0, 7.9537200927734375, -0.060054440051317215, -0.14166875183582306, -0.36251023411750793
402139, 0.0029192655347287655, -0.058112479746341705, -0.01094858068972826, 0.0025712524075061083, -0.00013399377348832786, 0.0033021506387740374, 0.0066238101571798325, -0.0003450710792094469, 0.006196287460625172, 0, 0, 0, 0, 0, 0, 9362.0, 34078.0, 35388.0, 9362.0, 7.9537200927734375, 0.24506895244121552, 0.412730872631073, 0.14721450209617615
402149, 0.003368537873029709, -0.059567518532276154, -0.009444203227758408, 0.002637988654896617, -0.00013746960030402988, 0.003364693373441696, 0.0067234281450510025, -0.0003500925959087908, 0.006312673445791006, 0, 0, 0, 0, 0, 0, 9362.0, 34078.0, 35388.0, 9362.0, 7.9537200927734375, 0.11941039562225342, 0.0698680579662323, 0.04762798547744751
402159, 0.0034096986055374146, -0.06116485595703125, -0.009142021648585796, 0.002705733058974147, -0.00014099945838097483, 0.003427988849580288, 0.0068254536017775536, -0.00035587840829975903, 0.006346826907247305, 0, 0, 0, 0, 0, 0, 9362.0, 34078.0, 35388.0, 9362.0, 7.9537200927734375, -0.14507991075515747, -0.2608587443828583, 0.15217266976833344
402169, 0.003514295443892479, -0.0613984614610672, -0.008582736365497112, 0.002774510532617569, -0.00014458748046308756, 0.0034908324014395475, 0.006930043455213308, -0.00036172440741211176, 0.006222292315214872, 0, 0, 0, 0, 0, 0, 9362.0, 34078.0, 35388.0, 9362.0, 7.9537200927734375, -0.020899051800370216, 0.07328778505325317, 0.07647611945867538
402179, 0.0039104679599404335, -0.06231341138482094, -0.0062902760691940784, 0.00284433551132679, -0.00014823483070358634, 0.0035520000383257866, 0.007034937851130962, -0.0003677385684568435, 0.006011649966239929, 0, 0, 0, 0, 0, 0, 9362.0, 34078.0, 35388.0, 9362.0, 7.9537200927734375, -0.010847855359315872, -0.4586810767650604, 0.09189292043447495
402189, 0.00364744127728045, -0.06060229614377022, -0.005028972867876291, 0.0029152182396501303, -0.00015194574370980263, 0.003611940424889326, 0.007141591049730778, -0.0003744410932995379, 0.00597681850194931, 0, 0, 0, 0, 0, 0, 9362.0, 34078.0, 35388.0, 9362.0, 7.9537200927734375, -0.15804317593574524, 0.26485493779182434, 0.11336389929056168
402199, 0.002634265460073948, -0.060191307216882706, -0.004495678935199976, 0.00298715359531343, -0.00015572145639453083, 0.0036722770892083645, 0.0072454712353646755, -0.0003806994645856321, 0.00609089620411396, 0, 0, 0, 0, 0, 0, 9362.0, 34078.0, 35388.0, 9362.0, 7.9537200927734375, -0.027604052796959877, 0.1296049803495407, -0.19436690211296082
402209, 0.002953215269371867, -0.06060686707496643, -0.0032309861853718758, 0.003060124348849058, -0.0001595510693732649, 0.003733862889930606, 0.007348672486841679, -0.00038522257818840444, 0.006226653233170509, 0, 0, 0, 0, 0, 0, 9362.0, 34078.0, 35388.0, 9362.0, 7.9537200927734375, -0.13025034964084625, 0.019675076007843018, -0.003538738703355193
402219, 0.0022128084674477577, -0.06081196665763855, -0.0017336300807073712, 0.003134130733087659, -0.00016342864546459168, 0.0037969499826431274, 0.00745261600241065, -0.0003902884782291949, 0.006391138304024935, 0, 0, 0, 0, 0, 0, 9362.0, 34078.0, 35388.0, 9362.0, 7.9537200927734375, 0.05824495851993561, -0.1269226223230362, 0.06965203583240509
402229, 0.002741154283285141, -0.06024191901087761, -0.000883419590536505, 0.0032091778703033924, -0.00016735050303395838, 0.0038611330091953278, 0.00755679327994585, -0.0003940813767258078, 0.00644586281850934, 0, 0, 0, 0, 0, 0, 9362.0, 34078.0, 35388.0, 9362.0, 7.9537200927734375, 0.08764471858739853, 0.08445530384778976, -0.12029677629470825
402239, 0.002610395895317197, -0.061006806790828705, -0.0003725264687091112, 0.003285261569544673, -0.000171314793988131, 0.003925670869648457, 0.007659954950213432, -0.00039877608651295304, 0.006462050136178732, 0, 0, 0, 0, 0, 0, 9362.0, 34078.0, 35388.0, 9362.0, 7.9537200927734375, 0.027969198301434517, -0.1419646292924881, 0.12898951768875122
402249, 0.004364450927823782, -0.06039876490831375, -0.0004035862220916897, 0.0033623843919485807, -0.0001753249525791034, 0.003991215489804745, 0.007764603942632675, -0.0004032603756058961, 0.0066472915932536125, 0, 0, 0, 0, 0, 0, 9362.0, 34078.0, 35388.0, 9362.0, 7.9537200927734375, 0.07238996773958206, 0.26277992129325867, 0.17354093492031097
402259, 0.0047401487827301025, -0.06336552649736404, 0.00026072017499245703, 0.003440548898652196, -0.00017939502140507102, 0.004058929160237312, 0.007868291810154915, -0.0004107530985493213, 0.006895875092595816, 0, 0, 0, 0, 0, 0, 9362.0, 34078.0, 35388.0, 9362.0, 7.9537200927734375, 0.23957723379135132, 0.1009121984243393, 0.2786479592323303
402269, 0.00473441556096077, -0.0653640627861023, 0.0017098005628213286, 0.0035197758115828037, -0.00018354323401581496, 0.004129190929234028, 0.007977082394063473, -0.0004188873281236738, 0.007156853098422289, 0, 0, 0, 0, 0, 0, 9362.0, 34078.0, 35388.0, 9362.0, 7.9537200927734375, -0.08609475195407867, -0.12805058062076569, -0.3673047423362732
402279, 0.0037446909118443727, -0.06457355618476868, 0.0014397240011021495, 0.0036001072730869055, -0.00018777268996927887, 0.0042016590014100075, 0.008089199662208557, -0.0004270023782737553, 0.00733715808019042, 0, 0, 0, 0, 0, 0, 9362.0, 34078.0, 35388.0, 9362.0, 7.9537200927734375, -0.1523745059967041, 0.26983916759490967, -0.08831766247749329
402289, 0.003664141520857811, -0.06758185476064682, 0.0011283140629529953, 0.0036815537605434656, -0.0001920748472912237, 0.0042764851823449135, 0.008200103417038918, -0.0004334303375799209, 0.007628458086401224, 0, 0, 0, 0, 0, 0, 9362.0, 34078.0, 35388.0, 9362.0, 7.9537200927734375, -0.09560875594615936, -0.06559620052576065, -0.193643718957901
402299, 0.0026340424083173275, -0.06909677386283875, 5.7988869230030105e-05, 0.003764134831726551, -0.00019644058193080127, 0.00435394374653697, 0.0083160987123847, -0.0004397145821712911, 0.007863621227443218, 0, 0, 0, 0, 0, 0, 9362.0, 34078.0, 35388.0, 9362.0, 7.9537200927734375, 0.08369144797325134, 0.185043066740036, 0.4415721595287323
402309, 0.001385160838253796, -0.06820656359195709, 0.0021524671465158463, 0.00384788797236979, -0.00020086030417587608, 0.004433187190443277, 0.008434548042714596, -0.0004442229983396828, 0.007985423319041729, 0, 0, 0, 0, 0, 0, 9362.0, 34078.0, 35388.0, 9362.0, 7.9537200927734375, -0.03698376193642616, 0.3309532701969147, 0.39434561133384705
402319, 0.0012660681968554854, -0.07067996263504028, 0.004038104321807623, 0.003932818304747343, -0.00020531438349280506, 0.004513656720519066, 0.008551482111215591, -0.0004465891106519848, 0.008108905516564846, 0, 0, 0, 0, 0, 0, 9362.0, 34078.0, 35388.0, 9362.0, 7.9537200927734375, -0.0840279757976532, 0.10287316143512726, -0.05259700492024422
402329, 0.0006898815627209842, -0.07010281831026077, 0.004994007758796215, 0.004018938634544611, -0.00020979107648599893, 0.004595115780830383, 0.008672589436173439, -0.00044874718878418207, 0.008183331228792667, 0, 0, 0, 0, 0, 0, 9362.0, 34078.0, 35388.0, 9362.0, 7.9537200927734375, 0.21915945410728455, 0.15134739875793457, -0.09324751794338226
402339, 0.0030746781267225742, -0.07178431749343872, 0.003521053120493889, 0.004106264095753431, -0.00021428440231829882, 0.00467643653973937, 0.008792487904429436, -0.00044991556205786765, 0.00808124803006649, 0, 0, 0, 0, 0, 0, 9362.0, 34078.0, 35388.0, 9362.0, 7.9537200927734375, -0.23095464706420898, 0.18561549484729767, 0.007027802057564259
402349, 0.0015999249881133437, -0.07383254915475845, 0.003880909178406, 0.004194801673293114, -0.00021880977146793157, 0.004755860660225153, 0.008915037848055363, -0.0004551638267003, 0.007804011460393667, 0, 0, 0, 0, 0, 0, 9362.0, 34078.0, 35388.0, 9362.0, 7.9537200927734375, -0.011417392641305923, 0.15854685008525848, -0.19948285818099976
402359, 0.0025520012713968754, -0.07677287608385086, 0.002259654924273491, 0.004284584429115057, -0.00022337507107295096, 0.004834120161831379, 0.009041509591042995, -0.00045790011063218117, 0.007848245091736317, 0, 0, 0, 0, 0, 0, 9362.0, 34078.0, 35388.0, 9362.0, 7.9537200927734375, 0.03684518113732338, 0.03721962496638298, 0.20501823723316193
402369, 0.0035714278928935528, -0.07965366542339325, 0.0028524526860564947, 0.00437565753236413, -0.00022797592100687325, 0.004913121461868286, 0.009173103608191013, -0.00046226955601014197, 0.0079524340108037, 0, 0, 0, 0, 0, 0, 9362.0, 34078.0, 35388.0, 9362.0, 7.9537200927734375, 0.02389111928641796, -0.1692870557308197, 0.033103786408901215
402379, 0.0028473366983234882, -0.08049143105745316, 0.0042139277793467045, 0.004468070808798075, -0.0002326291723875329, 0.004992961417883635, 0.009309574030339718, -0.00046837751870043576, 0.008015939965844154, 0, 0, 0, 0, 0, 0, 9362.0, 34078.0, 35388.0, 9362.0, 7.9537200927734375, -0.043049152940511703, 0.13211503624916077, -0.16679184138774872
402389, 0.002545995404943824, -0.07814405113458633, 0.0019562954548746347, 0.004561855457723141, -0.00023733725538477302, 0.005072884727269411, 0.009447325021028519, -0.00047324583283625543, 0.007969135418534279, 0, 0, 0, 0, 0, 0, 9362.0, 34078.0, 35388.0, 9362.0, 7.9537200927734375, 0.06596176326274872, 0.1893831193447113, -0.00618878984823823
402399, 0.0030388638842850924, -0.08006006479263306, 0.0013331313384696841, 0.0046569970436394215, -0.00024209146795328707, 0.0051521845161914825, 0.009581012651324272, -0.0004775977577082813, 0.00789125356823206, 0, 0, 0, 0, 0, 0, 9362.0, 34078.0, 35388.0, 9362.0, 7.9537200927734375, -0.06973109394311905, 0.04888013377785683, -0.21115738153457642
402409, 0.0032198235858231783, -0.08087646961212158, -0.0009426685865037143, 0.004753492772579193, -0.00024689346901141107, 0.005231369286775589, 0.00971816573292017, -0.00048280609189532697, 0.007946117781102657, 0, 0, 0, 0, 0, 0, 9362.0, 34078.0, 35388.0, 9362.0, 7.9537200927734375, -0.11515900492668152, 0.10120011866092682, -0.02578348107635975
402419, 0.002936305245384574, -0.08287560939788818, -0.0005664378986693919, 0.004851367324590683, -0.00025174912298098207, 0.005311263259500265, 0.00985676608979702, -0.0004883248475380242, 0.008033057674765587, 0, 0, 0, 0, 0, 0, 9362.0, 34078.0, 35388.0, 9362.0, 7.9537200927734375, 0.21068455278873444, -0.12983570992946625, -0.05831499397754669
402429, 0.0026524909771978855, -0.08387765288352966, -0.0012260570656508207, 0.004950645379722118, -0.0002566575421951711, 0.0053920745849609375, 0.00999880488961935, -0.0004933597519993782, 0.008129643276333809, 0, 0, 0, 0, 0, 0, 9362.0, 34078.0, 35388.0, 9362.0, 7.9537200927734375, 0.09906557947397232, 0.27653300762176514, 0.047807686030864716
402439, 0.0030970498919487, -0.08418144285678864, -0.0019920708145946264, 0.005051352549344301, -0.0002616138954181224, 0.005474110133945942, 0.010142635554075241, -0.0004979142686352134, 0.00827780645340681, 0, 0, 0, 0, 0, 0, 9362.0, 34078.0, 35388.0, 9362.0, 7.9537200927734375, 0.015487396158277988, 0.30417993664741516, -0.018231311812996864
402449, 0.0036014479119330645, -0.08759420365095139, -0.001111862133257091, 0.0051535009406507015, -0.0002666196087375283, 0.00555775361135602, 0.010287032462656498, -0.0005032306653447449, 0.008451263420283794, 0, 0, 0, 0, 0, 0, 9362.0, 34078.0, 35388.0, 9362.0, 7.9537200927734375, 0.05734674260020256, 0.016360396519303322, -0.0175330713391304
402459, 0.0036441441625356674, -0.08888757973909378, -0.0030025867745280266, 0.005257122218608856, -0.0002716828021220863, 0.005642955657094717, 0.010437222197651863, -0.0005094135412946343, 0.008589502424001694, 0, 0, 0, 0, 0, 0, 9362.0, 34078.0, 35388.0, 9362.0, 7.9537200927734375, 0.14778302609920502, 0.20648431777954102, -0.11505477130413055
402469, 0.004735036287456751, -0.09104324132204056, -0.0026368387043476105, 0.005362255033105612, -0.00027680816128849983, 0.005728606134653091, 0.01058933511376381, -0.0005156560218892992, 0.008541003800928593, 0, 0, 0, 0, 0, 0, 9362.0, 34078.0, 35388.0, 9362.0, 7.9537200927734375, -0.025772009044885635, 0.2541285455226898, 0.1676633059978485
402479, 0.005098710302263498, -0.093111053109169, -0.0034106182865798473, 0.005468928720802069, -0.0002820053487084806, 0.005814642645418644, 0.010745421051979065, -0.0005237835575826466, 0.008666714653372765, 0, 0, 0, 0, 0, 0, 9362.0, 34078.0, 35388.0, 9362.0, 7.9537200927734375, -0.25309836864471436, -0.48513540625572205, 0.10048336535692215
402489, 0.004083087667822838, -0.09057600796222687, -0.0031599202193319798, 0.005577181000262499, -0.0002872869372367859, 0.005902039352804422, 0.010905073955655098, -0.0005325326346792281, 0.008812998421490192, 0, 0, 0, 0, 0, 0, 9362.0, 34078.0, 35388.0, 9362.0, 7.9537200927734375, 0.08579648286104202, -0.298577219247818, -0.41905900835990906
402499, 0.004655076190829277, -0.09037385135889053, -0.004437699448317289, 0.0056870076805353165, -0.0002926472807303071, 0.005990571808069944, 0.011060281656682491, -0.0005395420594140887, 0.008893887512385845, 0, 0, 0, 0, 0, 0, 9362.0, 34078.0, 35388.0, 9362.0, 7.9537200927734375, 0.018915517255663872, 0.33722782135009766, -0.1509571373462677
402509, 0.004612991586327553, -0.09098213911056519, -0.004993886221200228, 0.0057983845472335815, -0.0002980826247949153, 0.006079824175685644, 0.01121511496603489, -0.0005475310026668012, 0.008956952951848507, 0, 0, 0, 0, 0, 0, 9362.0, 34078.0, 35388.0, 9362.0, 7.9537200927734375, -0.059048041701316833, 0.047256194055080414, -0.052558958530426025
402519, 0.004977112170308828, -0.09142061322927475, -0.004915151745080948, 0.005911314394325018, -0.00030359748052433133, 0.006169379223138094, 0.0113708870485425, -0.000555442355107516, 0.00895448587834835, 0, 0, 0, 0, 0, 0, 9362.0, 34078.0, 35388.0, 9362.0, 7.9537200927734375, 0.04413023218512535, 0.10939586162567139, -0.02133812941610813
402529, 0.005105826538056135, -0.09090360999107361, -0.0046807401813566685, 0.0060258060693740845, -0.0003091945836786181, 0.00625899713486433, 0.011527436785399914, -0.0005639781593345106, 0.008969498798251152, 0, 0, 0, 0, 0, 0, 9362.0, 34078.0, 35388.0, 9362.0, 7.9537200927734375, -0.039622120559215546, -0.204576313495636, -0.1436796933412552
402539, 0.006051038857549429, -0.09067904949188232, -0.005024078767746687, 0.006141859106719494, -0.00031487815431319177, 0.006348855793476105, 0.011683130636811256, -0.00057273730635643, 0.009002672508358955, 0, 0, 0, 0, 0, 0, 9362.0, 34078.0, 35388.0, 9362.0, 7.9537200927734375, 0.08941727131605148, 0.1711266040802002, -0.1937018781900406
402549, 0.00530772190541029, -0.0892757847905159, -0.006565947085618973, 0.006259465590119362, -0.00032065733103081584, 0.0064381868578493595, 0.011838171631097794, -0.0005831025191582739, 0.00886395201086998, 0, 0, 0, 0, 0, 0, 9362.0, 34078.0, 35388.0, 9362.0, 7.9537200927734375, -0.13119570910930634, 0.22484701871871948, -0.03129134699702263
402559, 0.004136570263653994, -0.08994325995445251, -0.005379660986363888, 0.006378610618412495, -0.00032653380185365677, 0.0065261200070381165, 0.011990804225206375, -0.0005921943229623139, 0.008723110891878605, 0, 0, 0, 0, 0, 0, 9362.0, 34078.0, 35388.0, 9362.0, 7.9537200927734375, 0.12971723079681396, -0.20559605956077576, -0.026006879284977913
402569, 0.003852865658700466, -0.08954387158155441, -0.006101100705564022, 0.006499289069324732, -0.00033249123953282833, 0.006613568402826786, 0.012144869193434715, -0.0005992961814627051, 0.008766939863562584, 0, 0, 0, 0, 0, 0, 9362.0, 34078.0, 35388.0, 9362.0, 7.9537200927734375, -0.10397244989871979, 0.621967613697052, 0.22683586180210114
402579, 0.0025804059114307165, -0.09222935140132904, -0.004422600846737623, 0.006621505133807659, -0.00033851730404421687, 0.006701847072690725, 0.01229838002473116, -0.0006059103179723024, 0.008889181539416313, 0, 0, 0, 0, 0, 0, 9362.0, 34078.0, 35388.0, 9362.0, 7.9537200927734375, -0.07648785412311554, 0.38945984840393066, 0.11228947341442108
402589, 0.0009643901139497757, -0.09549738466739655, -0.0022545764222741127, 0.006745280232280493, -0.0003445986076258123, 0.0067917886190116405, 0.012456641532480717, -0.0006103381747379899, 0.009099498391151428, 0, 0, 0, 0, 0, 0, 9362.0, 34078.0, 35388.0, 9362.0, 7.9537200927734375, -0.07648785412311554, 0.38945984840393066, 0.11228947341442108
402599, 0.0019880987238138914, -0.0976741835474968, -0.003832500893622637, 0.006870664190500975, -0.0003507102665025741, 0.006882859393954277, 0.012620176188647747, -0.0006120008183643222, 0.009115087799727917, 0, 0, 0, 0, 0, 0, 9362.0, 34078.0, 35388.0, 9362.0, 7.9537200927734375, 0.06368767470121384, 0.11736984550952911, -0.04681811481714249
402609, 0.001994925318285823, -0.09964385628700256, -0.0033265482634305954, 0.006997702177613974, -0.00035684736212715507, 0.006974153220653534, 0.012787461280822754, -0.0006154155125841498, 0.009144037030637264, 0, 0, 0, 0, 0, 0, 9362.0, 34078.0, 35388.0, 9362.0, 7.9537200927734375, -0.00286129885353148, 0.16048482060432434, 0.053567420691251755
402619, 0.002197123598307371, -0.10151873528957367, -0.002618800848722458, 0.007126430049538612, -0.0003630186547525227, 0.0070657446049153805, 0.012958123348653316, -0.0006188401021063328, 0.009174616076052189, 0, 0, 0, 0, 0, 0, 9362.0, 34078.0, 35388.0, 9362.0, 7.9537200927734375, 0.10862843692302704, 0.12548229098320007, -0.25074446201324463
402629, 0.00300793768838048, -0.1025320440530777, -0.003007166087627411, 0.00725688086822629, -0.00036922591971233487, 0.007157718297094107, 0.013132021762430668, -0.0006226134719327092, 0.009220513515174389, 0, 0, 0, 0, 0, 0, 9362.0, 34078.0, 35388.0, 9362.0, 7.9537200927734375, -0.05467681959271431, -0.1672956943511963, 0.010625684633851051
402639, 0.0025260713882744312, -0.10177347809076309, -0.0026824651286005974, 0.007389080710709095, -0.00037547791725955904, 0.007250993978232145, 0.01330795418471098, -0.0006277812644839287, 0.009434996172785759, 0, 0, 0, 0, 0, 0, 9362.0, 34078.0, 35388.0, 9362.0, 7.9537200927734375, -0.0729290246963501, 0.011866716668009758, -0.10847575217485428
402649, 0.0026144629810005426, -0.10151597857475281, -0.002984601305797696, 0.007523033767938614, -0.00038177744136191905, 0.007346524856984615, 0.013482626527547836, -0.0006321262335404754, 0.009671553038060665, 0, 0, 0, 0, 0, 0, 9362.0, 34078.0, 35388.0, 9362.0, 7.9537200927734375, 0.062142372131347656, -0.008343009278178215, -0.1897709220647812
402659, 0.0018640728667378426, -0.10284599661827087, -0.0031130879651755095, 0.007658729795366526, -0.0003881211450789124, 0.007443683687597513, 0.013656596653163433, -0.0006366149173118174, 0.00976061075925827, 0, 0, 0, 0, 0, 0, 9362.0, 34078.0, 35388.0, 9362.0, 7.9537200927734375, -0.1874871701002121, 0.09572133421897888, 0.1045394316315651
402669, 0.002403410617262125, -0.10307370871305466, -0.0034085805527865887, 0.007796177174896002, -0.0003945033240597695, 0.007541941944509745, 0.013832920230925083, -0.0006398225086741149, 0.009891469031572342, 0, 0, 0, 0, 0, 0, 9362.0, 34078.0, 35388.0, 9362.0, 7.9537200927734375, -0.1874871701002121, 0.09572133421897888, 0.1045394316315651
402679, 0.0017384164966642857, -0.10512650012969971, -0.001527758315205574, 0.007935389876365662, -0.0004009222029708326, 0.00764145003631711, 0.014009619131684303, -0.0006439458811655641, 0.010010582394897938, 0, 0, 0, 0, 0, 0, 9362.0, 34078.0, 35388.0, 9362.0, 7.9537200927734375, 0.030480826273560524, -0.14740325510501862, 0.23681336641311646
402689, 0.0019849922973662615, -0.10345063358545303, -0.0007369506056420505, 0.008076386526226997, -0.0004073765594512224, 0.007741628680378199, 0.014189639128744602, -0.0006469250656664371, 0.01002557948231697, 0, 0, 0, 0, 0, 0, 9362.0, 34078.0, 35388.0, 9362.0, 7.9537200927734375, -0.07665769755840302, -0.0020762316416949034, -0.23223274946212769
402699, 0.002615894190967083, -0.10394531488418579, -0.0016250286716967821, 0.008219166658818722, -0.0004138627846259624, 0.00784089881926775, 0.014366406947374344, -0.0006503197946585715, 0.00982881523668766, 0, 0, 0, 0, 0, 0, 9362.0, 34078.0, 35388.0, 9362.0, 7.9537200927734375, -0.06391100585460663, -0.1173347756266594, 0.07513608038425446
402709, 0.002823481336236, -0.10309262573719025, -0.0022896728478372097, 0.00836371909826994, -0.00042038835817947984, 0.007938170805573463, 0.01454401295632124, -0.0006547956727445126, 0.00962590891867876, 0, 0, 0, 0, 0, 0, 9362.0, 34078.0, 35388.0, 9362.0, 7.9537200927734375, 0.03329171612858772, -0.1635960042476654, -0.21704378724098206
402719, 0.0025901366025209427, -0.10407397150993347, -0.001786670065484941, 0.008510041050612926, -0.00042696049786172807, 0.00803410355001688, 0.01472040731459856, -0.0006596326129510999, 0.009561045095324516, 0, 0, 0, 0, 0, 0, 9362.0, 34078.0, 35388.0, 9362.0, 7.9537200927734375, -0.22505070269107819, 0.25241023302078247, 0.20985962450504303
402729, 0.0017412517918273807, -0.10351434350013733, -0.00215582805685699, 0.00865813810378313, -0.0004335790581535548, 0.00813068076968193, 0.014898947440087795, -0.0006640798528678715, 0.009754709899425507, 0, 0, 0, 0, 0, 0, 9362.0, 34078.0, 35388.0, 9362.0, 7.9537200927734375, 0.0805351510643959, -0.08007007092237473, -0.10352209955453873
402739, 0.002004383597522974, -0.10277918726205826, -0.0015320245875045657, 0.008808014914393425, -0.00044023481314070523, 0.008229025639593601, 0.01507647056132555, -0.000667071552015841, 0.009914636611938477, 0, 0, 0, 0, 0, 0, 9362.0, 34078.0, 35388.0, 9362.0, 7.9537200927734375, -0.017210952937602997, -0.07265681773424149, -0.24968457221984863
402749, 0.0018056152621284127, -0.10357227921485901, -0.002078097779303789, 0.008959661237895489, -0.0004469227569643408, 0.008329059928655624, 0.015252764336764812, -0.0006705154664814472, 0.010092686861753464, 0, 0, 0, 0, 0, 0, 9362.0, 34078.0, 35388.0, 9362.0, 7.9537200927734375, -0.1064101979136467, -0.11007983237504959, -0.21304142475128174
